,City,Lat,Lng,Max Temp,Humidity,Cloudiness,Wind Speed,Country,Date
0,Yellowknife,62.456,-114.3525,62.33,48,40,1.99,CA,07/27/21
1,Tres Arroyos,-38.3739,-60.2798,42.28,75,95,17.27,AR,07/27/21
2,Savannah Bight,16.45,-85.85,84.25,78,95,22.57,HN,07/27/21
3,Hamilton,39.1834,-84.5333,85.23,67,1,3.44,US,07/27/21
4,Hilo,19.7297,-155.09,82.13,80,90,8.05,US,07/27/21
5,Salalah,17.0151,54.0924,78.89,89,90,6.91,OM,07/27/21
6,Gorontalo,0.5412,123.0595,85.37,68,23,6.82,ID,07/27/21
7,Cape Town,-33.9258,18.4232,52.12,90,20,1.01,ZA,07/27/21
8,Ushuaia,-54.8,-68.3,37.06,93,90,1.14,AR,07/27/21
9,Barrow,71.2906,-156.7887,42.82,84,90,19.57,US,07/27/21
10,Albany,42.6001,-73.9662,68.81,91,100,1.52,US,07/27/21
11,Newcastle,-32.9272,151.7765,71.65,42,100,4.0,AU,07/27/21
12,Ulaanbaatar,47.9077,106.8832,62.73,59,20,4.47,MN,07/27/21
13,Lakhipur,26.0299,90.3041,80.13,93,100,5.95,IN,07/27/21
14,Careiro da Várzea,-3.2003,-59.8119,84.81,62,7,2.82,BR,07/27/21
15,Bethel,41.3712,-73.414,79.56,79,90,0.0,US,07/27/21
16,Kahului,20.8947,-156.47,87.82,71,40,19.57,US,07/27/21
17,Port Alfred,-33.5906,26.891,61.54,86,24,14.5,ZA,07/27/21
18,Taksimo,56.3444,114.8794,77.4,45,44,1.25,RU,07/27/21
19,Busselton,-33.65,115.3333,51.04,75,58,16.49,AU,07/27/21
20,Norman Wells,65.282,-126.8329,71.64,43,75,8.05,CA,07/27/21
21,Dikson,73.5069,80.5464,37.74,99,100,12.64,RU,07/27/21
22,Rikitea,-23.1203,-134.9692,74.12,78,100,14.72,PF,07/27/21
23,Hermanus,-34.4187,19.2345,53.8,69,97,14.47,ZA,07/27/21
24,Butaritari,3.0707,172.7902,81.72,72,100,4.03,KI,07/27/21
25,Kapaa,22.0752,-159.319,85.98,75,90,3.0,US,07/27/21
26,Geraldton,-28.7667,114.6,59.13,88,90,10.36,AU,07/27/21
27,Hobart,-42.8794,147.3294,57.25,69,75,8.01,AU,07/27/21
28,Airai,-8.9266,125.4092,71.62,37,91,4.76,TL,07/27/21
29,Castro,-24.7911,-50.0119,48.13,92,100,6.53,BR,07/27/21
30,Cherskiy,68.75,161.3,39.25,73,100,19.48,RU,07/27/21
31,Vaini,-21.2,-175.2,69.96,88,75,6.91,TO,07/27/21
32,Provideniya,64.3833,-173.3,50.11,81,90,13.42,RU,07/27/21
33,Faanui,-16.4833,-151.75,77.68,75,30,9.19,PF,07/27/21
34,East London,-33.0153,27.9116,68.79,47,1,13.6,ZA,07/27/21
35,Bredasdorp,-34.5322,20.0403,54.72,71,100,8.05,ZA,07/27/21
36,Punta Arenas,-53.15,-70.9167,42.91,87,75,17.27,CL,07/27/21
37,New Norfolk,-42.7826,147.0587,58.5,69,94,4.0,AU,07/27/21
38,Codrington,-38.2667,141.9667,49.68,84,100,22.1,AU,07/27/21
39,Jimo,36.3897,120.4622,82.18,74,40,8.95,CN,07/27/21
40,La Ronge,55.1001,-105.2842,77.25,41,40,3.44,CA,07/27/21
41,Bambous Virieux,-20.3428,57.7575,68.22,100,75,14.97,MU,07/27/21
42,Saint-Augustin,51.226,-58.6502,60.39,99,100,6.91,CA,07/27/21
43,Makkah al Mukarramah,21.4267,39.8261,82.6,68,100,4.21,SA,07/27/21
44,Bilma,18.6853,12.9164,86.9,49,94,8.01,NE,07/27/21
45,Mount Gambier,-37.8333,140.7667,48.11,87,75,10.36,AU,07/27/21
46,Mazamari,-11.3258,-74.5308,74.16,75,99,1.77,PE,07/27/21
47,Chapais,49.7834,-74.8492,56.98,66,58,3.56,CA,07/27/21
48,Upernavik,72.7868,-56.1549,51.55,69,100,11.9,GL,07/27/21
49,Kirkenær,60.4564,12.0582,63.25,97,100,2.93,NO,07/27/21
50,Pangkalanbuun,-2.6833,111.6167,81.95,75,87,4.65,ID,07/27/21
51,Atuona,-9.8,-139.0333,78.26,65,0,16.58,PF,07/27/21
52,Yangi Marg`ilon,40.4272,71.7189,81.32,41,2,4.61,UZ,07/27/21
53,Vao,-22.6667,167.4833,68.05,62,75,16.53,NC,07/27/21
54,Nagato,34.3833,131.2,84.11,74,82,9.08,JP,07/27/21
55,Batemans Bay,-35.7167,150.1833,68.99,42,69,13.27,AU,07/27/21
56,Nānākuli,21.3906,-158.1547,89.55,48,40,11.5,US,07/27/21
57,Padang,-0.9492,100.3543,75.25,85,89,1.61,ID,07/27/21
58,Saint-Philippe,-21.3585,55.7679,69.39,89,99,13.56,RE,07/27/21
59,Port Elizabeth,-33.918,25.5701,57.49,88,0,16.11,ZA,07/27/21
60,Marzuq,14.4,46.4667,74.62,74,15,7.25,YE,07/27/21
61,Severo-Kuril'sk,50.6789,156.125,57.85,93,100,6.58,RU,07/27/21
62,Sabha,27.0377,14.4283,82.33,24,0,11.14,LY,07/27/21
63,Mataura,-46.1927,168.8643,51.48,74,69,0.63,NZ,07/27/21
64,Tumarbong,10.3766,119.4579,86.45,63,76,7.31,PH,07/27/21
65,Winslow,35.0242,-110.6974,87.98,36,20,1.99,US,07/27/21
66,Lebu,-37.6167,-73.65,46.56,80,0,22.1,CL,07/27/21
67,Mount Isa,-20.7333,139.5,78.57,41,0,11.5,AU,07/27/21
68,Fairbanks,64.8378,-147.7164,69.1,72,90,11.5,US,07/27/21
69,Tessalit,20.1986,1.0114,86.5,44,100,12.93,ML,07/27/21
70,Tasiilaq,65.6145,-37.6368,37.56,80,23,7.87,GL,07/27/21
71,Amga,60.8953,131.9608,72.75,43,8,7.02,RU,07/27/21
72,Aksu,41.1231,80.2644,86.05,30,100,5.46,CN,07/27/21
73,Meulaboh,4.1363,96.1285,77.54,88,77,3.33,ID,07/27/21
74,Sumkino,58.1108,68.3244,50.41,95,43,4.05,RU,07/27/21
75,Nouadhibou,20.931,-17.0347,69.78,83,38,20.71,MR,07/27/21
76,Carnarvon,-24.8667,113.6333,60.87,55,90,9.22,AU,07/27/21
77,Cabo San Lucas,22.8909,-109.9124,95.61,58,1,13.8,MX,07/27/21
78,Poum,-20.2333,164.0167,72.46,59,11,14.83,NC,07/27/21
79,Guane,22.2025,-84.0875,79.05,82,28,3.44,CU,07/27/21
80,Partizanskoye,55.5006,94.39,54.93,95,100,5.17,RU,07/27/21
81,Banjar,-8.19,114.9675,78.66,61,7,3.76,ID,07/27/21
82,Strezhevoy,60.7333,77.5889,57.18,83,10,6.29,RU,07/27/21
83,Berdigestyakh,62.0989,126.6992,69.64,42,38,5.59,RU,07/27/21
84,Richards Bay,-28.783,32.0377,61.61,69,1,15.41,ZA,07/27/21
85,Auki,-8.7676,160.7034,85.51,61,94,3.4,SB,07/27/21
86,Kruisfontein,-34.0033,24.7314,51.89,82,55,15.26,ZA,07/27/21
87,Bluff,-46.6,168.3333,51.8,70,44,11.18,NZ,07/27/21
88,Berlevåg,70.8578,29.0864,46.18,89,100,5.95,NO,07/27/21
89,High Rock,26.6208,-78.2833,84.22,71,0,8.12,BS,07/27/21
90,Nome,64.5011,-165.4064,50.16,93,90,14.97,US,07/27/21
91,Thompson,55.7435,-97.8558,73.56,49,75,9.22,CA,07/27/21
92,Ust-Kuyga,70.0167,135.6,52.63,53,7,14.72,RU,07/27/21
93,Qasigiannguit,68.8193,-51.1922,55.65,77,94,10.49,GL,07/27/21
94,Esperance,-33.8667,121.9,48.04,69,2,15.68,AU,07/27/21
95,Arraial do Cabo,-22.9661,-42.0278,70.95,81,0,24.07,BR,07/27/21
96,Nālūt,30.3333,10.85,80.96,26,0,15.35,LY,07/27/21
97,San Cristobal,7.7669,-72.225,73.58,95,25,1.5,VE,07/27/21
98,Chui,-33.6971,-53.4616,42.37,71,7,16.08,UY,07/27/21
99,Ribeira Grande,38.5167,-28.7,72.12,84,37,10.02,PT,07/27/21
100,Adrar,20.5022,-10.0711,87.49,30,100,12.71,MR,07/27/21
101,Hithadhoo,-0.6,73.0833,80.55,78,100,8.7,MV,07/27/21
102,Kaili,-3.4626,120.2147,75.15,68,82,2.48,ID,07/27/21
103,Shimoda,34.6667,138.95,82.76,76,100,12.66,JP,07/27/21
104,Hong Kong,22.2855,114.1577,91.96,86,98,1.01,HK,07/27/21
105,Qaanaaq,77.484,-69.3632,42.12,96,99,6.24,GL,07/27/21
106,Zaysan,47.4667,84.8667,64.78,42,0,7.92,KZ,07/27/21
107,Tiksi,71.6872,128.8694,40.96,82,27,14.09,RU,07/27/21
108,Coromandel,-18.4733,-47.2003,63.46,40,5,2.28,BR,07/27/21
109,Avera,33.194,-82.5271,86.72,64,66,2.21,US,07/27/21
110,Lahat,-3.8,103.5333,74.66,60,76,1.48,ID,07/27/21
111,Villazón,-22.0866,-65.5942,40.35,17,0,8.41,BO,07/27/21
112,General Pico,-35.6566,-63.7568,40.51,55,35,13.53,AR,07/27/21
113,São Filipe,14.8961,-24.4956,74.23,80,14,7.34,CV,07/27/21
114,Cabinda,-5.55,12.2,72.86,90,97,6.51,AO,07/27/21
115,Northam,51.0333,-4.2167,62.65,92,35,12.53,GB,07/27/21
116,Pitimbu,-7.4706,-34.8086,73.99,84,2,8.37,BR,07/27/21
117,Heinola,61.2056,26.0381,66.29,56,100,4.34,FI,07/27/21
118,Khatanga,71.9667,102.5,82.36,45,9,17.98,RU,07/27/21
119,Anáhuac,27.2333,-100.15,95.92,21,98,12.53,MX,07/27/21
120,Fare,-16.7,-151.0167,77.76,76,20,9.51,PF,07/27/21
121,Aktas,49.7789,72.9608,44.35,51,0,2.95,KZ,07/27/21
122,Iqaluit,63.7506,-68.5145,51.53,57,40,18.01,CA,07/27/21
123,Porosozero,62.7191,32.727,55.74,84,62,4.43,RU,07/27/21
124,Puerto Madryn,-42.7692,-65.0385,40.62,75,7,16.49,AR,07/27/21
125,Yulara,-25.2406,130.9889,64.24,48,90,4.61,AU,07/27/21
126,St. George's,12.0564,-61.7485,80.28,83,20,6.91,GD,07/27/21
127,Nesna,66.1967,13.0213,62.58,58,29,13.76,NO,07/27/21
128,Guthrie,35.8789,-97.4253,94.95,60,8,3.44,US,07/27/21
129,Jagalūr,14.5333,76.35,70.21,87,100,15.14,IN,07/27/21
130,Jamestown,42.097,-79.2353,76.32,78,1,5.75,US,07/27/21
131,Nikolskoye,59.7035,30.7861,65.01,67,100,4.65,RU,07/27/21
132,Quatre Cocos,-20.2078,57.7625,67.08,91,100,13.96,MU,07/27/21
133,Puerto Baquerizo Moreno,-0.9,-89.6,71.6,82,0,12.68,EC,07/27/21
134,Ayamé,5.6083,-3.1563,72.5,90,100,4.5,CI,07/27/21
135,Batagay-Alyta,67.8006,130.4114,51.22,53,31,15.37,RU,07/27/21
136,Alofi,-19.0595,-169.9187,80.49,69,75,5.75,NU,07/27/21
137,Uyuni,-20.4597,-66.825,36.79,37,0,22.64,BO,07/27/21
138,Fortuna,40.5982,-124.1573,59.32,93,1,5.75,US,07/27/21
139,Cockburn Town,21.4612,-71.1419,82.36,74,40,12.66,TC,07/27/21
140,Zemio,5.0314,25.1361,69.64,90,100,0.98,CF,07/27/21
141,Nagari,13.3333,79.5833,82.29,65,100,5.82,IN,07/27/21
142,Payo,-3.7508,103.6372,74.39,63,55,1.54,ID,07/27/21
143,Hasaki,35.7333,140.8333,84.49,80,100,20.27,JP,07/27/21
144,Ankara,39.9199,32.8543,68.92,48,0,1.14,TR,07/27/21
145,Laas,46.6166,10.7002,63.86,94,81,3.38,IT,07/27/21
146,Mahébourg,-20.4081,57.7,67.24,100,75,14.97,MU,07/27/21
147,Sovetskiy,61.3614,63.5842,45.34,79,99,5.73,RU,07/27/21
148,Gari,59.4307,62.3497,44.67,85,77,6.35,RU,07/27/21
149,Raudeberg,61.9875,5.1352,61.47,96,100,7.61,NO,07/27/21
150,Raahe,64.6833,24.4833,59.09,69,66,6.96,FI,07/27/21
151,Toora-Khem,52.4675,96.11,61.36,95,100,2.08,RU,07/27/21
152,Atar,20.5169,-13.0499,89.83,23,8,5.06,MR,07/27/21
153,Aklavik,68.2191,-135.0107,65.23,67,100,5.75,CA,07/27/21
154,Kumul,42.8,93.45,90.25,15,19,10.87,CN,07/27/21
155,Saint Paul Harbor,57.79,-152.4072,63.91,55,40,5.75,US,07/27/21
156,Kavieng,-2.5744,150.7967,84.69,72,11,8.86,PG,07/27/21
157,Morwell,-38.2333,146.4,63.91,89,54,9.37,AU,07/27/21
158,Chuzhou,32.3219,118.2978,76.19,98,100,18.23,CN,07/27/21
159,Muli,2.9167,73.5667,80.8,79,100,11.72,MV,07/27/21
160,Pacific Grove,36.6177,-121.9166,89.82,82,20,4.0,US,07/27/21
161,Russell,32.3502,-85.1999,79.52,94,1,6.91,US,07/27/21
162,Yaqui,27.3667,-110.1667,93.9,45,34,11.61,MX,07/27/21
163,Ixtapa,20.7,-105.2,87.03,70,40,10.36,MX,07/27/21
164,Morehead,37.2711,-87.1764,87.51,73,1,0.0,US,07/27/21
165,Tuktoyaktuk,69.4541,-133.0374,53.6,71,75,6.91,CA,07/27/21
166,San Andrés,12.5847,-81.7006,82.42,83,75,13.8,CO,07/27/21
167,Beringovskiy,63.05,179.3167,49.15,89,100,11.52,RU,07/27/21
168,Yumen,40.2833,97.2,79.3,18,0,5.21,CN,07/27/21
169,Ribnitz-Damgarten,54.25,12.4667,66.13,91,100,5.93,DE,07/27/21
170,Roald,62.5833,6.1333,69.17,94,40,0.0,NO,07/27/21
171,Cidreira,-30.1811,-50.2056,48.04,53,4,18.61,BR,07/27/21
172,Altay,47.8667,88.1167,66.69,55,0,2.51,CN,07/27/21
173,Vostok,46.4856,135.8833,84.83,60,79,1.3,RU,07/27/21
174,Omsukchan,62.5333,155.8,45.46,67,100,9.62,RU,07/27/21
175,Farmington,36.7281,-108.2187,84.88,32,1,16.11,US,07/27/21
176,Eureka,40.8021,-124.1637,59.58,87,100,5.53,US,07/27/21
177,Kovdor,67.5662,30.4758,54.54,95,12,3.53,RU,07/27/21
178,Starosubkhangulovo,53.1031,57.4423,51.96,91,31,2.01,RU,07/27/21
179,Angoram,-4.0625,144.0661,88.05,60,6,2.93,PG,07/27/21
180,Micheweni,-4.9667,39.8333,74.39,80,2,14.54,TZ,07/27/21
181,‘Āhuimanu,21.4447,-157.8378,89.31,62,75,17.27,US,07/27/21
182,Avarua,-21.2078,-159.775,77.05,65,49,5.75,CK,07/27/21
183,Oranjemund,-28.55,16.4333,53.02,84,0,4.56,NA,07/27/21
184,Saskylakh,71.9167,114.0833,62.98,47,26,19.98,RU,07/27/21
185,Mar del Plata,-38.0023,-57.5575,47.08,66,75,17.0,AR,07/27/21
186,Nantucket,41.2835,-70.0995,78.1,89,1,9.22,US,07/27/21
187,eMkhomazi,-30.2067,30.7978,58.68,28,0,7.16,ZA,07/27/21
188,Menongue,-14.6585,17.691,46.87,46,0,5.12,AO,07/27/21
189,Aswān,24.0934,32.907,88.9,25,0,11.5,EG,07/27/21
190,Cap-aux-Meules,47.3821,-61.8597,64.45,94,75,3.44,CA,07/27/21
191,Wanning,18.8003,110.3967,86.72,68,100,8.72,CN,07/27/21
192,Lorengau,-2.0226,147.2712,83.71,75,4,6.17,PG,07/27/21
193,Honiara,-9.4333,159.95,86.02,67,91,8.86,SB,07/27/21
194,Husavik,66.0449,-17.3389,49.91,99,100,9.28,IS,07/27/21
195,George Town,5.4112,100.3354,83.89,85,20,1.01,MY,07/27/21
196,Egvekinot,66.3167,-179.1667,40.1,90,100,10.67,RU,07/27/21
197,Margate,51.3813,1.3862,63.3,85,99,3.0,GB,07/27/21
198,Sistranda,63.7256,8.834,67.96,74,77,21.12,NO,07/27/21
199,Kieta,-6.2167,155.6333,83.34,72,99,3.74,PG,07/27/21
200,Chokurdakh,70.6333,147.9167,47.91,51,95,12.17,RU,07/27/21
201,Longyearbyen,78.2186,15.6401,42.64,93,75,11.5,SJ,07/27/21
202,Suba,10.8438,121.0102,83.89,79,63,19.6,PH,07/27/21
203,Valparaíso,-33.0393,-71.6273,53.47,70,0,3.44,CL,07/27/21
204,Port Moresby,-9.4431,147.1797,85.42,66,75,11.5,PG,07/27/21
205,Yarim,14.298,44.3779,60.08,69,14,1.1,YE,07/27/21
206,Ambon City,-3.6954,128.1814,84.34,89,40,3.44,ID,07/27/21
207,Unity,52.4501,-109.1682,83.34,25,51,14.45,CA,07/27/21
208,Suda,59.1525,37.5582,50.11,91,77,3.04,RU,07/27/21
209,Lata,40.1629,-8.3327,61.92,98,21,1.5,PT,07/27/21
210,San Quintín,30.4833,-115.95,73.08,75,1,12.71,MX,07/27/21
211,Rodolfo Sánchez Taboada,31.7167,-116.5667,83.19,68,23,7.92,MX,07/27/21
212,Turbiv,49.3479,28.7212,65.52,80,96,6.42,UA,07/27/21
213,Sørland,67.667,12.6934,55.33,88,9,9.57,NO,07/27/21
214,Lüderitz,-26.6481,15.1594,54.79,74,0,8.84,NA,07/27/21
215,Rocha,-34.4833,-54.3333,45.07,82,98,17.76,UY,07/27/21
216,Holme,56.1138,10.1725,60.37,92,93,4.97,DK,07/27/21
217,Sola,-13.8833,167.55,79.47,89,75,9.22,VU,07/27/21
218,Mehamn,71.0357,27.8492,46.47,88,94,3.53,NO,07/27/21
219,Broome,42.2506,-75.833,68.7,96,90,8.05,US,07/27/21
220,Gunjur,13.2019,-16.7339,80.67,78,40,3.44,GM,07/27/21
221,Djibouti,11.5,42.5,85.42,60,55,5.61,DJ,07/27/21
222,Puerto Ayora,-0.7393,-90.3518,71.69,82,23,9.26,EC,07/27/21
223,Flagstaff,35.1981,-111.6513,80.26,46,1,5.01,US,07/27/21
224,Ciudad Guayana,8.3533,-62.6528,78.53,95,100,4.83,VE,07/27/21
225,Sabzawār,36.2126,57.6819,78.46,23,0,21.7,IR,07/27/21
226,Luena,-11.7833,19.9167,48.31,45,100,3.83,AO,07/27/21
227,Alta Floresta,-9.8756,-56.0861,75.34,40,3,3.4,BR,07/27/21
228,Boysun,38.2061,67.1986,75.72,31,0,4.29,UZ,07/27/21
229,Rondonópolis,-16.4708,-54.6356,70.66,65,10,9.4,BR,07/27/21
230,Tilichiki,60.4667,166.1,58.08,60,99,15.28,RU,07/27/21
231,Biggar,55.6167,-3.5167,59.56,97,100,3.06,GB,07/27/21
232,Puerto Maldonado,-12.6,-69.1833,77.25,64,35,2.95,PE,07/27/21
233,Inhambane,-23.865,35.3833,64.54,63,0,5.95,MZ,07/27/21
234,Abhā,18.2164,42.5053,64.22,94,0,4.61,SA,07/27/21
235,Plettenberg Bay,-34.0527,23.3716,56.57,83,100,12.3,ZA,07/27/21
236,Manadhoo,5.7667,73.3833,82.44,76,94,15.32,MV,07/27/21
237,Vallenar,-28.5708,-70.7581,55.78,48,0,2.04,CL,07/27/21
238,Tranby,59.8167,10.25,64.08,96,100,5.99,NO,07/27/21
239,Xining,36.6167,101.7667,59.23,59,29,3.04,CN,07/27/21
240,Vestmannaeyjar,63.4427,-20.2734,53.29,85,48,3.49,IS,07/27/21
241,Agirish,61.9247,63.0231,43.99,82,96,7.56,RU,07/27/21
242,Tha Bo,17.85,102.5814,84.85,94,75,0.0,TH,07/27/21
243,Samarai,-10.6167,150.6667,78.71,87,93,16.31,PG,07/27/21
244,Henties Bay,-22.116,14.2845,56.86,84,0,2.91,NA,07/27/21
245,Ulaangom,49.9811,92.0667,67.41,61,0,4.38,MN,07/27/21
246,Marsala,37.7966,12.4352,81.55,67,0,6.53,IT,07/27/21
247,Talnakh,69.4865,88.3972,63.61,85,87,3.2,RU,07/27/21
248,Tsimmerbude,54.675,20.1347,64.45,91,7,6.64,RU,07/27/21
249,Pyryatyn,50.2445,32.5107,68.74,48,100,7.9,UA,07/27/21
250,Mocuba,-16.8392,36.9856,59.56,96,98,3.22,MZ,07/27/21
251,Port Alberni,49.2413,-124.8028,87.89,35,0,1.01,CA,07/27/21
252,Flin Flon,54.7682,-101.865,73.0,52,0,5.64,CA,07/27/21
253,Alappuzha,9.49,76.3264,77.47,85,98,5.12,IN,07/27/21
254,Shaunavon,49.6501,-108.4181,87.58,17,67,15.08,CA,07/27/21
255,Ancud,-41.8697,-73.8203,42.33,84,68,3.24,CL,07/27/21
256,Paragominas,-2.9667,-47.4833,78.98,68,99,5.03,BR,07/27/21
257,Yuzhne,46.6221,31.1013,70.02,58,5,6.73,UA,07/27/21
258,Qūchān,37.106,58.5095,68.56,31,0,9.37,IR,07/27/21
259,Khvorostyanka,52.6096,48.9597,60.28,77,32,6.91,RU,07/27/21
260,Alghero,40.5589,8.3181,79.99,94,0,1.14,IT,07/27/21
261,Neiafu,-18.65,-173.9833,77.68,83,75,3.44,TO,07/27/21
262,Lethem,3.3803,-59.7968,75.38,89,81,6.35,GY,07/27/21
263,Vanavara,60.34,102.2797,79.14,41,0,1.68,RU,07/27/21
264,Międzyrzec Podlaski,51.9864,22.7825,65.77,81,35,5.82,PL,07/27/21
265,Mahanoro,-19.9,48.8,61.99,80,35,8.75,MG,07/27/21
266,Balaipungut,1.05,101.2833,77.41,61,38,4.23,ID,07/27/21
267,Buala,-8.145,159.5921,82.76,75,81,9.26,SB,07/27/21
268,Mundo Nuevo (Ojo de Agua),18.7,-95.5,81.66,74,58,10.09,MX,07/27/21
269,Wanlaweyn,2.6185,44.8938,74.26,79,100,14.0,SO,07/27/21
270,Linares,-35.85,-71.6,40.03,84,0,4.0,CL,07/27/21
271,Port-Gentil,-0.7193,8.7815,75.52,80,55,8.9,GA,07/27/21
272,Bowen,-20.0167,148.2333,73.62,59,5,8.9,AU,07/27/21
273,Tateyama,34.9833,139.8667,86.99,81,100,20.87,JP,07/27/21
274,Grand Gaube,-20.0064,57.6608,67.37,90,100,5.99,MU,07/27/21
275,Duvan,55.695,57.9024,50.2,90,98,3.4,RU,07/27/21
276,Severo-Yeniseyskiy,60.3725,93.0408,55.22,86,100,7.18,RU,07/27/21
277,La Palma,33.8464,-118.0467,101.05,62,1,7.0,US,07/27/21
278,Bandundu Province,-3.3167,17.3667,70.21,30,1,3.91,CD,07/27/21
279,Beibei,29.8256,106.4339,85.37,78,17,2.48,CN,07/27/21
280,Labuhan,-6.8844,112.2051,78.93,73,9,7.7,ID,07/27/21
281,Dāmghān,36.1683,54.348,77.61,44,0,3.31,IR,07/27/21
282,Casablanca,33.5928,-7.6192,73.62,83,17,11.01,MA,07/27/21
283,Demikhovo,55.7968,38.884,62.46,75,58,2.73,RU,07/27/21
284,Bereket,39.2446,55.5154,86.52,20,2,8.03,TM,07/27/21
285,Kikwit,-5.041,18.8162,66.87,25,1,2.89,CD,07/27/21
286,Saldanha,-33.0117,17.9442,53.65,70,100,7.63,ZA,07/27/21
287,Marsá Maţrūḩ,31.3525,27.2453,79.0,73,0,6.91,EG,07/27/21
288,Te Anau,-45.4167,167.7167,50.94,75,100,3.13,NZ,07/27/21
289,Long Branch,40.3043,-73.9924,83.95,61,1,4.0,US,07/27/21
290,Kaitangata,-46.2817,169.8464,52.93,55,100,2.37,NZ,07/27/21
291,Klaksvík,62.2266,-6.589,52.72,97,100,5.99,FO,07/27/21
292,Khani,41.9563,42.9566,62.17,94,97,1.54,GE,07/27/21
293,Paracuru,-3.41,-39.0306,80.62,84,11,12.82,BR,07/27/21
294,Ylivieska,64.0833,24.55,67.32,69,87,4.7,FI,07/27/21
295,Ilulissat,69.2167,-51.1,48.06,79,100,7.65,GL,07/27/21
296,Sydney Mines,46.2367,-60.2177,69.19,93,75,4.0,CA,07/27/21
297,San Patricio,28.017,-97.5169,92.08,60,53,10.78,US,07/27/21
298,Paciran,-6.8767,112.3761,78.71,73,5,5.53,ID,07/27/21
299,Namatanai,-3.6667,152.4333,85.39,65,11,4.97,PG,07/27/21
300,Robertsport,6.7533,-11.3686,77.43,80,100,12.97,LR,07/27/21
301,Ballitoville,-29.539,31.2144,58.24,71,0,2.3,ZA,07/27/21
302,Nikolayevsk-on-Amur,53.1406,140.73,80.08,65,100,3.4,RU,07/27/21
303,Amapá,1.0,-52.0,71.24,98,6,2.28,BR,07/27/21
304,Ryōtsu-minato,38.0833,138.4333,78.76,69,17,1.83,JP,07/27/21
305,Ostrovnoy,68.0531,39.5131,52.09,79,100,4.65,RU,07/27/21
306,Norden,53.6,7.2,63.97,93,100,11.74,DE,07/27/21
307,Korop,51.5664,32.9586,65.44,67,98,7.43,UA,07/27/21
308,Pangoa,-12.1167,-73.0,70.86,76,24,3.15,PE,07/27/21
309,Portland,45.5234,-122.6762,90.37,42,20,1.01,US,07/27/21
310,Pisco,-13.7,-76.2167,63.01,82,0,19.57,PE,07/27/21
311,Mapiripán,2.8892,-72.1256,74.39,93,100,1.12,CO,07/27/21
312,Lompoc,34.6391,-120.4579,84.02,77,10,13.8,US,07/27/21
313,Cayenne,4.9333,-52.3333,82.09,82,7,1.99,GF,07/27/21
314,Torbay,47.6666,-52.7314,66.97,96,90,19.57,CA,07/27/21
315,Altamira,-3.2033,-52.2064,75.09,57,3,1.52,BR,07/27/21
316,Bemidji,47.4736,-94.8803,80.69,61,1,5.75,US,07/27/21
317,Lüleburgaz,41.4039,27.3592,72.77,57,0,6.33,TR,07/27/21
318,Pevek,69.7008,170.3133,36.34,90,97,8.12,RU,07/27/21
319,Bonthe,7.5264,-12.505,76.87,84,100,10.63,SL,07/27/21
320,Kysyl-Syr,63.8986,122.7617,69.67,44,19,8.01,RU,07/27/21
321,Vikhorevka,56.1201,101.1636,72.99,59,11,2.68,RU,07/27/21
322,Saint George,37.1041,-113.5841,97.39,24,1,1.01,US,07/27/21
323,Souillac,-20.5167,57.5167,67.35,100,75,14.97,MU,07/27/21
324,Esim,4.8699,-2.2405,75.76,82,100,9.82,GH,07/27/21
325,Turaif,31.6725,38.6637,77.25,50,0,10.36,SA,07/27/21
326,Bonito,-21.1211,-56.4819,55.71,35,80,10.04,BR,07/27/21
327,Bengkulu,-3.8004,102.2655,77.07,70,42,4.16,ID,07/27/21
328,Sioux Lookout,50.1001,-91.917,79.18,44,40,0.0,CA,07/27/21
329,Clonakilty,51.6231,-8.8706,54.61,83,99,14.85,IE,07/27/21
330,Laguna,38.421,-121.4238,100.44,28,1,1.01,US,07/27/21
331,Ketchikan,55.3422,-131.6461,64.87,68,75,8.05,US,07/27/21
332,Caraz,-9.0486,-77.81,61.9,82,66,2.21,PE,07/27/21
333,Heide,54.2,9.1,64.08,95,100,7.25,DE,07/27/21
334,Agüimes,27.9054,-15.4461,69.66,78,75,19.57,ES,07/27/21
335,Joshīmath,30.5667,79.5667,74.62,88,100,1.25,IN,07/27/21
336,Oranjestad,12.524,-70.027,82.35,83,20,13.8,AW,07/27/21
337,Itarantim,-15.6597,-40.0656,65.75,89,63,2.95,BR,07/27/21
338,Sept-Îles,50.2001,-66.3821,62.06,73,75,5.01,CA,07/27/21
339,Saint-Joseph,-21.3667,55.6167,68.38,87,64,14.67,RE,07/27/21
340,Hailar,49.2,119.7,71.11,66,79,10.29,CN,07/27/21
341,Santa Maria,-29.6842,-53.8069,42.1,65,0,8.05,BR,07/27/21
342,Oussouye,12.485,-16.5469,82.58,79,100,7.14,SN,07/27/21
343,Posse,-14.0931,-46.3694,66.51,37,7,2.93,BR,07/27/21
344,Lobito,-12.3481,13.5456,69.85,85,7,0.45,AO,07/27/21
345,Alyangula,-13.8483,136.4192,80.47,69,56,4.61,AU,07/27/21
346,Soddy-Daisy,35.2359,-85.1908,84.04,85,99,3.02,US,07/27/21
347,Grenville,12.1167,-61.6167,80.65,77,32,15.03,GD,07/27/21
348,Bhadrāchalam,17.6667,80.8833,78.28,81,100,7.72,IN,07/27/21
349,Nyurba,63.2842,118.3319,77.11,50,16,3.89,RU,07/27/21
350,Atambua,-9.1061,124.8925,81.86,49,86,2.95,ID,07/27/21
351,Ponta do Sol,32.6667,-17.1,73.0,72,5,5.28,PT,07/27/21
352,Talā,30.6803,30.9429,71.62,82,0,5.77,EG,07/27/21
353,Havelock,34.8791,-76.9013,82.94,90,63,1.01,US,07/27/21
354,Kavaratti,10.5669,72.642,81.75,78,100,19.35,IN,07/27/21
355,Borogontsy,62.6683,131.1683,69.89,38,12,5.7,RU,07/27/21
356,Kyzyl-Suu,42.3414,78.0056,68.94,56,47,1.5,KG,07/27/21
357,Nemuro,43.3236,145.575,81.03,89,33,7.96,JP,07/27/21
358,Kloulklubed,7.0419,134.2556,79.3,79,63,10.96,PW,07/27/21
359,Athabasca,54.7169,-113.2854,75.61,23,0,14.67,CA,07/27/21
360,Mayumba,-3.432,10.6554,72.32,90,98,3.02,GA,07/27/21
361,Okhotsk,59.3833,143.3,62.58,81,94,11.92,RU,07/27/21
362,Oyama,36.3,139.8,87.53,54,49,3.4,JP,07/27/21
363,Novo Aripuanã,-5.1206,-60.3797,77.59,51,0,1.63,BR,07/27/21
364,Mineiros,-17.5694,-52.5511,68.02,61,20,7.52,BR,07/27/21
365,Alim,9.5649,122.4876,83.52,81,77,15.14,PH,07/27/21
366,Edzell,56.8095,-2.6549,61.0,98,100,5.59,GB,07/27/21
367,Tigre,-34.426,-58.5796,50.22,54,0,14.97,AR,07/27/21
368,Saint-François,46.4154,3.9054,63.18,99,99,4.61,FR,07/27/21
369,Eyl,7.9803,49.8164,78.33,57,100,19.19,SO,07/27/21
370,Pital,2.2665,-75.8044,66.6,93,15,4.09,CO,07/27/21
371,Vardø,70.3705,31.1107,46.44,86,97,15.32,NO,07/27/21
372,Delījān,33.9905,50.6838,81.48,23,0,5.28,IR,07/27/21
373,Maniitsoq,65.4167,-52.9,49.23,79,22,15.03,GL,07/27/21
374,Crixás,-14.5489,-49.9692,73.51,34,60,0.22,BR,07/27/21
375,Tura,25.5198,90.2201,77.13,94,92,3.22,IN,07/27/21
376,Leningradskiy,69.3833,178.4167,33.93,97,100,9.66,RU,07/27/21
377,Port Hedland,-20.3167,118.5667,69.85,83,8,3.44,AU,07/27/21
378,Mogadishu,2.0371,45.3438,76.42,81,79,20.56,SO,07/27/21
379,Nara,34.6851,135.8049,87.96,51,44,6.2,JP,07/27/21
380,Hofn,64.2539,-15.2082,53.67,85,100,5.82,IS,07/27/21
381,Tigil',57.8,158.6667,59.32,79,100,4.05,RU,07/27/21
382,Nanortalik,60.1432,-45.2371,45.23,81,100,6.33,GL,07/27/21
383,São João da Barra,-21.6403,-41.0511,70.83,85,0,15.93,BR,07/27/21
384,Klyuchevskiy,53.5317,119.4519,58.55,98,100,2.62,RU,07/27/21
385,Fujin,47.26,132.0322,94.84,37,6,7.49,CN,07/27/21
386,Taltal,-25.4,-70.4833,56.77,77,2,3.09,CL,07/27/21
387,Petropavlovsk-Kamchatskiy,53.0452,158.6483,77.59,50,20,15.66,RU,07/27/21
388,Vrangel',42.7297,133.0839,77.63,81,22,6.67,RU,07/27/21
389,Comodoro Rivadavia,-45.8667,-67.5,37.26,75,0,3.44,AR,07/27/21
390,Lubaczów,50.157,23.1234,63.52,91,26,3.56,PL,07/27/21
391,Emerald,-23.5333,148.1667,69.35,64,0,10.36,AU,07/27/21
392,Lago da Pedra,-4.3333,-45.1667,77.2,56,21,2.48,BR,07/27/21
393,Rāvar,31.2656,56.8055,76.84,16,6,6.4,IR,07/27/21
394,Kingston,17.997,-76.7936,83.35,88,20,1.01,JM,07/27/21
395,Neuquén,-38.9516,-68.0591,46.29,57,0,3.44,AR,07/27/21
396,Leh,34.1667,77.5833,63.61,55,98,1.74,IN,07/27/21
397,Mwinilunga,-11.7358,24.4293,51.21,52,100,3.65,ZM,07/27/21
398,Ahipara,-35.1667,173.1667,60.22,77,49,8.01,NZ,07/27/21
399,Belyy Yar,53.6039,91.3903,57.09,94,75,4.47,RU,07/27/21
400,Shahrud,36.4182,54.9763,73.76,46,0,5.5,IR,07/27/21
401,Lakselv,70.0513,24.9718,51.75,100,90,6.91,NO,07/27/21
402,Apele Vii,44.0667,24.0667,75.38,44,0,2.59,RO,07/27/21
403,Zhigansk,66.7697,123.3711,57.78,58,100,12.73,RU,07/27/21
404,Caravelas,-17.7125,-39.2481,72.45,83,0,8.81,BR,07/27/21
405,Tupelo,34.2576,-88.7034,91.69,65,1,4.0,US,07/27/21
406,Mergen,49.1833,125.2167,73.72,82,29,8.25,CN,07/27/21
407,Fairlie,55.756,-4.8556,59.4,88,100,4.0,GB,07/27/21
408,Kulhudhuffushi,6.6221,73.07,81.93,77,62,15.23,MV,07/27/21
409,Kinablangan,7.6947,126.5503,86.56,64,85,5.28,PH,07/27/21
410,Arlit,18.7369,7.3853,83.68,51,48,12.01,NE,07/27/21
411,Weyburn,49.6668,-103.8511,93.42,29,27,16.11,CA,07/27/21
412,Rosarito,32.3333,-117.0333,88.03,71,21,11.5,MX,07/27/21
413,Fomboni,-12.28,43.7425,76.41,67,4,15.32,KM,07/27/21
414,Nabire,-3.3667,135.4833,86.09,65,84,0.74,ID,07/27/21
415,Bilibino,68.0546,166.4372,43.09,78,100,3.31,RU,07/27/21
416,Augusto Corrêa,-1.0217,-46.635,76.01,86,95,3.76,BR,07/27/21
417,Sambava,-14.2667,50.1667,66.27,85,6,10.76,MG,07/27/21
418,Pinsk,52.1229,26.0951,64.36,95,4,6.06,BY,07/27/21
419,Bogovarovo,58.9785,47.0246,45.75,86,23,5.1,RU,07/27/21
420,Tambura,5.6,27.4667,67.32,98,99,2.55,SS,07/27/21
421,Constitución,-35.3333,-72.4167,45.63,75,0,7.14,CL,07/27/21
422,Honningsvåg,70.9821,25.9704,46.6,87,99,4.43,NO,07/27/21
423,Chingirlau,51.095,54.0814,63.88,47,7,5.61,KZ,07/27/21
424,Lagoa,39.05,-27.9833,70.39,89,100,8.28,PT,07/27/21
425,Mercedes,-34.6515,-59.4307,47.86,54,94,11.99,AR,07/27/21
426,The Pas,53.8251,-101.2541,80.62,41,1,5.32,CA,07/27/21
427,Bathsheba,13.2167,-59.5167,81.21,78,40,16.11,BB,07/27/21
428,Al Bardīyah,31.7561,25.0865,77.63,67,0,6.76,LY,07/27/21
429,Taoudenni,22.6783,-3.9836,100.29,9,98,9.33,ML,07/27/21
430,Sirte,31.2089,16.5887,78.64,67,0,10.02,LY,07/27/21
431,Santa Cruz de la Sierra,-17.8,-63.1667,62.06,36,90,16.11,BO,07/27/21
432,Ekhabi,53.5102,142.9671,72.81,83,100,3.2,RU,07/27/21
433,Ubari,26.5921,12.7805,83.07,21,0,8.55,LY,07/27/21
434,Mandalgovi,45.7625,106.2708,68.52,57,42,4.34,MN,07/27/21
435,San Fernando,15.0286,120.6898,82.96,77,100,11.97,PH,07/27/21
436,Kapit,2.0167,112.9333,81.25,80,42,1.88,MY,07/27/21
437,Svejbæk,56.1325,9.6329,60.71,95,95,5.23,DK,07/27/21
438,Sandwick,60.0,-1.25,55.22,94,90,4.61,GB,07/27/21
439,Ondjiva,-17.0667,15.7333,51.46,37,4,7.34,AO,07/27/21
440,Basna,21.2833,82.8167,75.52,89,100,11.05,IN,07/27/21
441,Spearfish,44.4908,-103.8594,102.42,11,1,7.0,US,07/27/21
442,Bryant,34.5959,-92.4891,92.86,57,4,2.68,US,07/27/21
443,Leer,8.3018,30.1418,69.58,96,88,3.13,SS,07/27/21
444,Fort William,56.8165,-5.1121,57.31,91,100,2.64,GB,07/27/21
445,Mossamedes,-15.1961,12.1522,64.47,86,0,2.21,AO,07/27/21
446,Almazar,40.3217,69.0106,74.91,23,0,10.11,UZ,07/27/21
447,Port Blair,11.6667,92.75,82.17,85,100,19.37,IN,07/27/21
448,Pangnirtung,66.1451,-65.7125,49.87,72,100,2.77,CA,07/27/21
449,Nurota,40.5614,65.6886,77.09,27,0,12.91,UZ,07/27/21
450,Iskateley,67.6803,53.1512,44.62,86,100,8.66,RU,07/27/21
451,Puerto Madero,14.7208,-92.4215,82.9,72,87,3.96,MX,07/27/21
452,Avila,40.5833,-5.0,65.64,50,0,3.2,ES,07/27/21
453,Boissevain,49.2306,-100.0559,79.3,21,98,8.01,CA,07/27/21
454,Qom,34.6401,50.8764,87.22,23,0,14.43,IR,07/27/21
455,Ballina,-28.8667,153.5667,71.78,56,32,6.91,AU,07/27/21
456,Port Shepstone,-30.7414,30.455,60.03,30,0,7.16,ZA,07/27/21
457,Vila Velha,-20.3297,-40.2925,71.55,88,0,8.05,BR,07/27/21
458,Snåase,64.2457,12.3778,64.18,63,51,5.39,NO,07/27/21
459,Redlands,34.0556,-117.1825,99.55,36,1,1.99,US,07/27/21
460,Yar-Sale,66.8333,70.8333,49.17,67,99,11.45,RU,07/27/21
461,Umm Hājar,13.2954,19.6966,74.89,88,100,4.56,TD,07/27/21
462,Guerrero Negro,27.9769,-114.0611,74.66,67,0,17.36,MX,07/27/21
463,Portsoy,57.6814,-2.6896,62.2,92,100,10.22,GB,07/27/21
464,Tevriz,57.509,72.4042,54.41,97,41,4.99,RU,07/27/21
465,Tezu,27.9167,96.1667,83.97,71,76,0.94,IN,07/27/21
466,Rzhev,56.2624,34.3282,59.07,93,91,3.18,RU,07/27/21
467,Karratha,-20.7377,116.8463,72.64,55,7,6.53,AU,07/27/21
468,Challakere,14.3167,76.65,71.82,82,100,16.82,IN,07/27/21
469,Roebourne,-20.7833,117.1333,73.51,56,7,5.86,AU,07/27/21
470,Coyhaique,-45.5752,-72.0662,35.55,93,0,2.3,CL,07/27/21
471,Sur,22.5667,59.5289,96.85,40,100,25.7,OM,07/27/21
472,Banda Aceh,5.5577,95.3222,82.04,75,55,13.87,ID,07/27/21
473,Moindou,-21.6924,165.677,75.15,51,0,4.29,NC,07/27/21
474,Lodwar,3.1191,35.5973,82.08,43,100,10.78,KE,07/27/21
475,Gisborne,-38.6533,178.0042,57.94,49,2,8.59,NZ,07/27/21
476,Pāsighāt,28.0667,95.3333,84.42,75,61,0.78,IN,07/27/21
477,Daura,11.5538,11.4085,71.28,91,100,7.67,NG,07/27/21
478,Garoowe,8.4054,48.4845,74.61,56,100,23.33,SO,07/27/21
479,Camopi,3.1655,-52.3158,71.69,98,0,2.84,GF,07/27/21
480,Acapulco de Juárez,16.8634,-99.8901,82.09,79,75,4.38,MX,07/27/21
481,Bonnyville,54.2668,-110.735,76.8,19,0,14.65,CA,07/27/21
482,Zamość,50.7231,23.252,67.84,89,81,4.32,PL,07/27/21
483,Bambamarca,-6.6833,-78.5333,53.92,93,100,3.33,PE,07/27/21
484,San Juan,-31.5375,-68.5364,47.62,41,0,6.89,AR,07/27/21
485,Vila Franca do Campo,37.7167,-25.4333,68.41,87,9,7.87,PT,07/27/21
486,Touros,-5.1989,-35.4608,74.3,88,11,10.58,BR,07/27/21
487,Behshahr,36.6923,53.5526,80.55,90,99,6.42,IR,07/27/21
488,City of San Pedro,14.35,121.0167,82.15,93,90,16.11,PH,07/27/21
489,Yacuiba,-22.038,-63.6797,48.31,49,7,3.69,BO,07/27/21
490,Kota Belud,6.351,116.4305,85.86,61,100,6.58,MY,07/27/21
491,Dubbo,-32.25,148.6167,62.73,42,75,17.27,AU,07/27/21
492,Krasnokamensk,50.0979,118.0369,69.17,72,1,5.93,RU,07/27/21
493,Anloga,5.7947,0.8973,75.42,84,100,14.92,GH,07/27/21
494,Grindavik,63.8424,-22.4338,51.75,93,0,13.8,IS,07/27/21
495,Galle,6.0367,80.217,79.47,89,98,10.92,LK,07/27/21
496,San Miguel,13.4833,-88.1833,72.55,99,100,4.25,SV,07/27/21
497,Narsaq,60.9167,-46.05,46.62,73,99,2.86,GL,07/27/21
498,Tuatapere,-46.1333,167.6833,52.83,66,13,1.72,NZ,07/27/21
499,Santiago,-33.4569,-70.6483,53.85,52,0,5.75,CL,07/27/21
500,Kalamazoo,42.2506,-85.55,82.45,54,1,6.91,US,07/27/21
501,Majene,-3.5403,118.9707,79.83,76,88,8.88,ID,07/27/21
502,Bariloche,-41.1456,-71.3082,38.44,47,0,5.75,AR,07/27/21
503,Beira,-19.8436,34.8389,60.89,100,20,3.44,MZ,07/27/21
504,Divnomorskoye,44.5011,38.1353,68.27,63,3,15.97,RU,07/27/21
505,Sechura,-5.5569,-80.8222,69.01,80,32,15.5,PE,07/27/21
506,Clyde River,70.4692,-68.5914,50.23,71,90,8.05,CA,07/27/21
507,Port Hardy,50.6996,-127.4199,64.58,72,20,11.5,CA,07/27/21
508,Tara,56.8944,74.371,56.53,75,100,5.53,RU,07/27/21
509,Flinders,-34.5833,150.8552,71.26,41,24,9.06,AU,07/27/21
510,Gulfport,30.3674,-89.0928,88.02,70,1,8.05,US,07/27/21
511,Gwadar,25.1216,62.3254,82.02,88,82,8.99,PK,07/27/21
512,Paramonga,-10.6667,-77.8333,64.6,87,75,10.25,PE,07/27/21
513,Licata,37.1071,13.9461,88.07,54,0,5.61,IT,07/27/21
514,Bloomington,44.8408,-93.2983,92.71,66,43,1.99,US,07/27/21
515,Savalou,7.9281,1.9756,70.41,91,100,5.12,BJ,07/27/21
516,Pilar,-9.5972,-35.9567,75.13,94,6,1.95,BR,07/27/21
517,Les Cayes,18.2,-73.75,79.25,90,81,4.94,HT,07/27/21
518,Barentu,15.1139,37.5928,69.31,88,100,6.35,ER,07/27/21
519,Tabas,33.5959,56.9244,81.5,19,1,7.25,IR,07/27/21
520,Putina,-15.4667,-69.4333,42.87,73,11,10.78,PE,07/27/21
521,Aykhal,66.0,111.5,82.62,38,40,4.92,RU,07/27/21
522,Shimokizukuri,40.8061,140.3861,79.65,84,95,15.08,JP,07/27/21
523,Haines Junction,60.7522,-137.5108,66.15,55,43,5.75,CA,07/27/21
524,Nuuk,64.1835,-51.7216,46.56,82,1,15.61,GL,07/27/21
525,Chipinge,-20.1883,32.6236,45.19,93,0,3.02,ZW,07/27/21
526,Martapura,-3.4167,114.85,80.69,83,0,3.44,ID,07/27/21
527,Vanimo,-2.6741,141.3028,85.3,69,11,5.48,PG,07/27/21
528,Korla,41.7597,86.1469,89.1,17,6,10.83,CN,07/27/21
529,Iwanai,42.9744,140.5089,87.15,49,6,1.1,JP,07/27/21
530,Harper,4.375,-7.7169,76.71,74,100,8.03,LR,07/27/21
531,Waingapu,-9.6567,120.2641,83.1,60,41,13.91,ID,07/27/21
532,Belmonte,-15.8631,-38.8828,73.9,85,0,8.93,BR,07/27/21
533,Cairns,-16.9167,145.7667,78.12,69,90,6.91,AU,07/27/21
534,Necochea,-38.5473,-58.7368,45.03,65,100,22.82,AR,07/27/21
535,Caluquembe,-13.7833,14.6833,51.8,39,5,1.34,AO,07/27/21
536,Champasak,14.75,106.0,75.58,97,100,1.41,LA,07/27/21
537,Ronneby,56.21,15.276,61.3,100,11,1.14,SE,07/27/21
538,Touba,8.2833,-7.6833,69.21,98,100,5.95,CI,07/27/21
539,Livingston,55.9029,-3.5226,60.13,92,40,6.91,GB,07/27/21
540,Vila,42.0304,-8.1588,54.7,82,1,4.99,PT,07/27/21
541,Kashgar,39.4547,75.9797,83.41,30,75,6.71,CN,07/27/21
542,Porto Belo,-27.1578,-48.5531,58.15,80,69,3.36,BR,07/27/21
543,Kirakira,-10.4544,161.9205,84.9,68,44,11.95,SB,07/27/21
544,Trincomalee,8.5711,81.2335,81.07,79,100,21.43,LK,07/27/21
545,Tūkrah,32.5341,20.5791,75.76,77,0,9.37,LY,07/27/21
546,Juegang,32.3174,121.1855,77.34,95,100,23.06,CN,07/27/21
547,Mitú,1.1983,-70.1733,71.94,97,100,1.21,CO,07/27/21
548,Satipo,-11.2522,-74.6386,73.56,77,100,1.97,PE,07/27/21
549,Bongandanga,1.5,21.05,68.79,55,67,2.37,CD,07/27/21
550,Olafsvik,64.8945,-23.7142,51.48,87,100,13.6,IS,07/27/21
551,Palmer,42.1584,-72.3287,68.47,85,90,1.01,US,07/27/21
552,Jaca,42.569,-0.5499,69.01,93,99,2.66,ES,07/27/21
553,Barão de Melgaço,-16.1944,-55.9675,68.52,64,5,10.78,BR,07/27/21
554,Abu Samrah,35.3029,37.1841,77.86,47,0,10.02,SY,07/27/21
555,Brăduţ,46.1333,25.6167,67.33,77,6,1.97,RO,07/27/21
556,Matara,5.9485,80.5353,78.21,91,95,9.57,LK,07/27/21
557,Sarai,53.7458,41.0213,61.45,82,27,5.59,RU,07/27/21
558,Naze,28.3667,129.4833,81.52,86,52,12.35,JP,07/27/21
559,Kudahuvadhoo,2.6708,72.8944,81.1,76,100,10.74,MV,07/27/21
560,Pāvilosta,56.8879,21.1859,69.71,90,17,9.66,LV,07/27/21
561,Kailua,21.4022,-157.7394,89.58,67,75,17.27,US,07/27/21
562,Srednekolymsk,67.45,153.6833,37.74,96,100,9.66,RU,07/27/21
563,Kemisē,10.7167,39.8667,67.08,79,100,5.3,ET,07/27/21
564,Hjørring,57.4642,9.9823,62.08,96,82,7.87,DK,07/27/21
565,São Gabriel da Cachoeira,-0.1303,-67.0892,74.14,93,100,2.44,BR,07/27/21
566,Sitka,57.0531,-135.33,60.69,77,75,0.0,US,07/27/21
567,Mahajanga,-15.7167,46.3167,68.02,83,20,5.75,MG,07/27/21
568,Sarab,38.6066,44.9883,72.21,55,0,7.74,IR,07/27/21
569,Jijiga,9.35,42.8,60.53,79,100,19.33,ET,07/27/21
570,Jumla,29.2747,82.1838,65.82,92,100,1.39,NP,07/27/21
571,Katsuura,35.1333,140.3,86.14,78,100,18.32,JP,07/27/21
572,Inza,53.8533,46.3586,56.95,84,12,3.31,RU,07/27/21
573,Pathein,16.7833,94.7333,81.19,88,100,12.66,MM,07/27/21
574,Safi,32.2994,-9.2372,69.73,93,65,13.15,MA,07/27/21
575,Chlórakas,34.8042,32.4083,81.63,69,0,2.3,CY,07/27/21
576,Salinópolis,-0.6136,-47.3561,78.82,81,83,9.75,BR,07/27/21
577,Zandvoort,52.3749,4.5341,62.55,93,20,8.05,NL,07/27/21
