,City,Lat,Lng,Max Temp,Humidity,Cloudiness,Wind Speed,Country,Date
0,Saskylakh,71.9167,114.0833,287.06,62,88,7.18,RU,1627255649
1,Vaini,-21.2,-175.2,300.24,83,40,2.57,TO,1627255667
2,Catia La Mar,10.6038,-67.0303,301.26,83,40,2.57,VE,1627255667
3,Los Llanos de Aridane,28.6585,-17.9182,293.77,81,0,7.2,ES,1627255667
4,Rikitea,-23.1203,-134.9692,294.85,68,15,2.33,PF,1627255668
5,Zhicheng,30.2956,111.5047,298.52,85,0,1.45,CN,1627255668
6,Tasiilaq,65.6145,-37.6368,279.24,82,35,1.66,GL,1627255668
7,Kruisfontein,-34.0033,24.7314,285.8,33,73,4.0,ZA,1627255396
8,Dikson,73.5069,80.5464,278.46,80,100,4.48,RU,1627255617
9,Henties Bay,-22.116,14.2845,292.69,43,68,0.4,NA,1627255469
10,Buraidah,26.326,43.975,307.4,17,3,3.1,SA,1627256030
11,Hasaki,35.7333,140.8333,300.53,72,19,8.68,JP,1627255669
12,Touros,-5.1989,-35.4608,297.65,81,3,5.19,BR,1627255790
13,Cape Town,-33.9258,18.4232,287.66,71,0,1.03,ZA,1627255921
14,Yar-Sale,66.8333,70.8333,280.32,80,65,3.43,RU,1627255669
15,Along,28.1667,94.7667,297.85,99,100,0.28,IN,1627255669
16,Kalkar,51.7333,6.3,293.05,93,66,2.83,DE,1627255670
17,Walvis Bay,-22.9575,14.5053,296.68,21,44,7.72,NA,1627255663
18,Bluff,-46.6,168.3333,281.37,85,100,1.64,NZ,1627255601
19,Kefar Shemaryahu,32.1856,34.8219,300.88,86,2,1.85,IL,1627255670
20,Port Elizabeth,-33.918,25.5701,281.31,76,0,1.03,ZA,1627255670
21,Lavrentiya,65.5833,-171.0,280.08,98,100,1.0,RU,1627255471
22,Saint George,37.1041,-113.5841,309.48,32,1,2.68,US,1627255627
23,Mount Vernon,40.9126,-73.8371,302.95,77,75,0.45,US,1627255506
24,Nísia Floresta,-6.0911,-35.2086,297.6,90,6,3.11,BR,1627255671
25,Anadyr,64.75,177.4833,285.43,87,75,3.58,RU,1627255671
26,Chokurdakh,70.6333,147.9167,282.25,53,1,4.35,RU,1627255671
27,Vredendal,-31.6683,18.5012,290.43,27,99,7.68,ZA,1627255672
28,Tiksi,71.6872,128.8694,282.46,92,100,3.16,RU,1627255672
29,Imatra,61.1719,28.7524,288.36,75,97,2.39,FI,1627255672
30,Hermanus,-34.4187,19.2345,287.54,52,100,4.45,ZA,1627255672
31,Hobart,-42.8794,147.3294,282.18,72,20,1.34,AU,1627255529
32,Busselton,-33.65,115.3333,287.64,65,15,9.7,AU,1627255656
33,Sterling,39.0062,-77.4286,304.62,65,40,0.45,US,1627255612
34,Salimpur,28.128,76.2766,304.19,65,98,3.3,IN,1627255673
35,Faya,18.3851,42.4509,291.21,80,100,2.32,SA,1627255673
36,Ushuaia,-54.8,-68.3,274.96,75,40,9.77,AR,1627255611
37,Ossora,59.2353,163.0719,288.74,88,100,1.68,RU,1627255428
38,Santa Cecília,-26.9608,-50.4269,285.88,78,53,1.31,BR,1627255674
39,Hithadhoo,-0.6,73.0833,300.38,73,90,1.99,MV,1627255674
40,Lompoc,34.6391,-120.4579,302.42,77,90,6.17,US,1627255674
41,Amahai,-3.3333,128.9167,298.26,85,99,1.66,ID,1627255476
42,São João da Barra,-21.6403,-41.0511,294.5,72,0,6.58,BR,1627255643
43,Bintulu,3.1667,113.0333,299.38,100,20,1.03,MY,1627255674
44,Beringovskiy,63.05,179.3167,283.27,93,100,2.49,RU,1627255389
45,Albany,42.6001,-73.9662,299.83,90,29,2.09,US,1627255598
46,Alofi,-19.0595,-169.9187,298.09,94,7,1.03,NU,1627255675
47,Sitka,57.0531,-135.33,287.09,82,90,2.57,US,1627255675
48,Cidreira,-30.1811,-50.2056,291.89,74,24,3.94,BR,1627255675
49,Ozernovskiy,51.5,156.5167,285.84,96,100,1.97,RU,1627255676
50,Hilo,19.7297,-155.09,300.59,85,90,3.09,US,1627255676
51,Mar del Plata,-38.0023,-57.5575,284.26,58,90,2.68,AR,1627255676
52,San Rafael,-34.6177,-68.3301,283.88,35,0,2.83,AR,1627255644
53,Lebu,-37.6167,-73.65,282.85,89,65,8.21,CL,1627255676
54,New Norfolk,-42.7826,147.0587,281.99,75,60,0.45,AU,1627255677
55,Chegutu,-18.1302,30.1407,281.24,65,0,3.57,ZW,1627255677
56,Jamestown,42.097,-79.2353,299.27,62,1,0.89,US,1627255396
57,Mahajanga,-15.7167,46.3167,293.16,68,40,2.06,MG,1627255539
58,Coquimbo,-29.9533,-71.3436,286.0,82,20,2.57,CL,1627255494
59,Geraldton,-28.7667,114.6,281.38,100,90,6.69,AU,1627255677
60,Mahébourg,-20.4081,57.7,293.31,68,20,4.63,MU,1627255678
61,Nha Trang,12.25,109.1833,301.15,73,57,1.99,VN,1627255678
62,Port Lincoln,-34.7333,135.8667,286.09,82,87,7.96,AU,1627255678
63,Três Passos,-27.4556,-53.9319,292.31,62,19,2.21,BR,1627255678
64,Kasulu,-4.5767,30.1025,289.31,78,5,1.33,TZ,1627255679
65,Narsaq,60.9167,-46.05,285.27,61,24,0.55,GL,1627255679
66,Poum,-20.2333,164.0167,296.2,71,13,8.3,NC,1627256034
67,Abdulino,53.7,53.6667,283.43,59,3,2.43,RU,1627255679
68,Khatanga,71.9667,102.5,285.6,71,27,2.04,RU,1627255666
69,Kalino,58.2504,57.6085,284.29,66,100,2.01,RU,1627255680
70,Sobolevo,54.4299,31.8996,290.26,71,66,2.06,RU,1627255680
71,Norman Wells,65.282,-126.8329,298.17,41,75,7.72,CA,1627255680
72,Esperance,-33.8667,121.9,284.06,89,6,7.77,AU,1627255653
73,Necochea,-38.5473,-58.7368,279.28,82,98,7.63,AR,1627255681
74,Avarua,-21.2078,-159.775,299.18,78,40,4.12,CK,1627255681
75,Port Hedland,-20.3167,118.5667,288.18,77,98,3.09,AU,1627255463
76,Punta Arenas,-53.15,-70.9167,275.21,75,0,5.14,CL,1627255681
77,Soresina,45.2865,9.857,296.39,78,67,2.22,IT,1627255681
78,Ketchikan,55.3422,-131.6461,289.41,72,75,4.12,US,1627255413
79,Caravelas,-17.7125,-39.2481,294.22,77,14,3.15,BR,1627255682
80,Winnemucca,40.973,-117.7357,312.18,8,1,2.06,US,1627255682
81,Huron,41.1501,-82.5499,302.58,62,61,3.13,US,1627255682
82,Salalah,17.0151,54.0924,299.2,89,75,2.06,OM,1627255990
83,Butaritari,3.0707,172.7902,300.55,78,88,4.24,KI,1627255683
84,Coihueco,-36.6167,-71.8333,282.56,100,90,2.06,CL,1627255683
85,Constitución,-35.3333,-72.4167,283.37,92,26,3.49,CL,1627255528
86,Katsuura,35.1333,140.3,301.21,73,35,7.15,JP,1627255683
87,Airai,-8.9266,125.4092,288.37,53,64,1.31,TL,1627255684
88,Vallenar,-28.5708,-70.7581,286.65,55,0,1.58,CL,1627255684
89,Nikolskoye,59.7035,30.7861,291.93,72,43,1.46,RU,1627255672
90,Haines Junction,60.7522,-137.5108,290.12,48,98,2.57,CA,1627256035
91,Port Alfred,-33.5906,26.891,289.07,35,58,4.68,ZA,1627255684
92,Tuktoyaktuk,69.4541,-133.0374,281.15,93,90,5.66,CA,1627255685
93,Mataura,-46.1927,168.8643,281.19,87,100,1.08,NZ,1627255685
94,Guarapari,-20.6667,-40.4975,294.09,77,0,3.32,BR,1627255685
95,Rapid Valley,44.0625,-103.1463,310.48,17,1,3.6,US,1627255548
96,Oro Valley,32.3909,-110.9665,300.26,75,100,0.45,US,1627255685
97,Ngunguru,-35.6167,174.5,290.46,80,18,5.34,NZ,1627255686
98,Zarautz,43.2844,-2.1699,293.28,82,99,0.89,ES,1627255686
99,Camacha,33.0833,-16.3333,296.22,94,75,5.14,PT,1627255686
100,Samarai,-10.6167,150.6667,299.61,74,100,6.81,PG,1627255391
101,Panabá,21.2833,-88.2667,304.06,57,99,5.2,MX,1627255687
102,Harrison,30.4091,-89.0436,305.16,81,1,0.0,US,1627255687
103,Djenné,13.9061,-4.5533,302.39,56,71,2.97,ML,1627255687
104,Province of Groningen,53.25,6.75,291.5,73,9,0.0,NL,1627255501
105,Chalmette,29.9427,-89.9634,306.48,59,1,0.45,US,1627255450
106,Talnakh,69.4865,88.3972,287.51,92,98,1.57,RU,1627255404
107,Usatove,46.533,30.6596,293.27,83,0,2.0,UA,1627255688
108,Bāfq,31.6128,55.4107,302.32,13,0,2.26,IR,1627255688
109,Riyadh,24.6877,46.7219,306.23,18,0,1.29,SA,1627255688
110,Leningradskiy,69.3833,178.4167,277.6,85,99,2.33,RU,1627255688
111,Kampot,10.6167,104.1833,301.18,87,99,3.03,KH,1627255689
112,Sirte,31.2089,16.5887,299.59,71,0,5.12,LY,1627255689
113,Esna,25.2934,32.554,303.16,23,0,4.56,EG,1627255689
114,Asău,46.4333,26.4,290.66,82,33,1.82,RO,1627256037
115,Obo,5.3998,26.4869,293.11,98,100,0.76,CF,1627255689
116,Dudinka,69.4058,86.1778,286.02,85,100,2.22,RU,1627255690
117,Mlyniv,50.509,25.6168,292.55,72,96,3.46,UA,1627255690
118,Ziarat,30.3823,67.7282,294.84,49,16,0.59,PK,1627255690
119,Sedro-Woolley,48.5039,-122.2361,303.57,53,1,0.45,US,1627255521
120,Qaanaaq,77.484,-69.3632,278.15,70,83,1.44,GL,1627255690
121,Tual,-5.6667,132.75,299.4,81,64,9.02,ID,1627255691
122,Ambovombe,-25.1667,46.0833,289.77,64,17,4.61,MG,1627255437
123,Novi Sanzhary,49.3439,34.3108,291.98,58,31,3.11,UA,1627255691
124,Torbay,47.6666,-52.7314,287.75,91,90,4.12,CA,1627255691
125,Kidal,18.4411,1.4078,305.6,36,91,3.7,ML,1627255692
126,Chalisgaon,20.4667,75.0167,297.54,82,71,6.24,IN,1627255692
127,Puerto Ayora,-0.7393,-90.3518,295.68,86,43,3.13,EC,1627255600
128,Kieta,-6.2167,155.6333,301.21,76,60,1.29,PG,1627256038
129,Santa Isabel,-23.3156,-46.2214,295.18,44,0,0.89,BR,1627255692
130,Bilibino,68.0546,166.4372,287.95,52,29,1.35,RU,1627256038
131,Nuuk,64.1835,-51.7216,284.49,66,75,1.54,GL,1627255455
132,Atuona,-9.8,-139.0333,298.55,74,46,10.0,PF,1627255693
133,Hualmay,-11.0964,-77.6139,291.09,81,13,4.39,PE,1627255499
134,Isangel,-19.55,169.2667,299.21,83,75,1.54,VU,1627255693
135,Kjøpsvik,68.097,16.3742,285.4,96,89,0.38,NO,1627255693
136,Tuatapere,-46.1333,167.6833,281.38,92,100,0.96,NZ,1627255694
137,Saint-Augustin,51.226,-58.6502,291.9,62,37,7.72,CA,1627255694
138,George Town,5.4112,100.3354,301.42,91,20,1.54,MY,1627255605
139,La Reforma,25.0833,-108.05,308.79,62,51,6.01,MX,1627255694
140,Katima Mulilo,-17.5,24.2667,283.11,61,0,1.89,NA,1627255694
141,Kahului,20.8947,-156.47,305.16,76,40,9.77,US,1627255990
142,Kumluca,36.3703,30.2869,300.98,43,18,3.11,TR,1627255695
143,Aykhal,66.0,111.5,298.35,47,16,7.07,RU,1627256039
144,Vuktyl,63.8567,57.3094,282.22,93,100,2.4,RU,1627255695
145,Kapaa,22.0752,-159.319,303.14,79,75,3.13,US,1627255695
146,Zhangye,38.9342,100.4517,295.63,44,100,4.75,CN,1627255486
147,Mollendo,-17.0231,-72.0147,288.54,84,89,1.52,PE,1627255696
148,Eureka,40.8021,-124.1637,293.78,73,100,1.79,US,1627256019
149,Saint Paul Harbor,57.79,-152.4072,284.88,82,90,2.57,US,1627255696
150,Saint-Philippe,-21.3585,55.7679,292.9,77,54,4.5,RE,1627255696
151,Ipixuna,-1.7625,-48.8043,302.12,81,43,1.8,BR,1627256040
152,Fairbanks,64.8378,-147.7164,294.31,53,40,1.34,US,1627255696
153,‘Ewa Beach,21.3156,-158.0072,305.12,59,75,5.14,US,1627255472
154,Niono,14.2526,-5.993,303.7,51,36,3.2,ML,1627255697
155,Kaitangata,-46.2817,169.8464,281.47,81,100,0.78,NZ,1627255697
156,Maniwaki,46.3834,-75.966,295.45,83,64,3.09,CA,1627255697
157,Tongren,27.7172,109.1853,297.09,90,2,0.52,CN,1627255698
158,Waipawa,-41.4122,175.5153,285.62,88,100,7.34,NZ,1627255611
159,Marzuq,14.4,46.4667,295.92,79,70,2.7,YE,1627255459
160,Yeppoon,-23.1333,150.7333,289.03,45,3,2.91,AU,1627255698
161,Viedma,-40.8135,-62.9967,281.41,49,48,4.05,AR,1627255698
162,Payo,-3.7508,103.6372,293.1,74,2,1.04,ID,1627256041
163,Mehamn,71.0357,27.8492,279.96,83,100,6.22,NO,1627255699
164,Ahipara,-35.1667,173.1667,288.55,85,14,6.76,NZ,1627255699
165,Bathsheba,13.2167,-59.5167,297.49,94,75,3.6,BB,1627255480
166,Nome,64.5011,-165.4064,283.8,87,90,3.6,US,1627255602
167,Ancud,-41.8697,-73.8203,277.89,75,18,3.66,CL,1627255300
168,Barrow,71.2906,-156.7887,279.16,93,90,6.69,US,1627255502
169,Kavieng,-2.5744,150.7967,300.98,73,91,1.86,PG,1627255700
170,Kudahuvadhoo,2.6708,72.8944,300.98,72,94,4.09,MV,1627255700
171,Belmonte,-15.8631,-38.8828,293.43,87,68,4.34,BR,1627255700
172,Pembroke,45.8168,-77.1162,299.08,59,57,1.7,CA,1627255579
173,Saint Anthony,45.0205,-93.218,307.0,26,1,5.14,US,1627255701
174,Kaputa,-8.4689,29.6619,289.41,55,35,4.15,ZM,1627255701
175,Harper,4.375,-7.7169,297.47,75,25,2.91,LR,1627255701
176,Gelibolu,40.4103,26.6708,296.07,78,0,5.15,TR,1627255701
177,Upernavik,72.7868,-56.1549,278.73,78,21,4.42,GL,1627255608
178,Olinda,-8.0089,-34.8553,295.0,88,75,3.09,BR,1627255702
179,Vrangel',42.7297,133.0839,298.26,85,31,0.79,RU,1627255702
180,Arraial do Cabo,-22.9661,-42.0278,294.61,74,0,11.82,BR,1627255678
181,Itoman,26.1247,127.6694,301.36,89,75,4.63,JP,1627255519
182,Lālsot,26.5667,76.3333,303.52,70,99,2.12,IN,1627255702
183,São Filipe,14.8961,-24.4956,296.53,74,43,4.72,CV,1627255703
184,Bairiki Village,1.3292,172.9752,303.15,74,75,5.14,KI,1627255703
185,Mala Danylivka,50.0635,36.1656,292.38,59,0,1.0,UA,1627255703
186,Kangaatsiaq,68.3065,-53.4641,278.28,87,100,3.49,GL,1627256043
187,Cockburn Town,21.4612,-71.1419,301.31,80,14,4.77,TC,1627255623
188,Pimentel,-6.8367,-79.9342,294.31,82,0,1.34,PE,1627255703
189,Boa Viagem,-5.1275,-39.7322,298.23,46,2,1.12,BR,1627255704
190,Barra do Garças,-15.89,-52.2567,296.22,32,7,1.07,BR,1627255704
191,Faanui,-16.4833,-151.75,298.74,65,1,4.55,PF,1627255704
192,Sisimiut,66.9395,-53.6735,282.36,72,100,3.32,GL,1627255704
193,Kédougou,12.5579,-12.1743,298.19,87,96,2.44,SN,1627255705
194,Vila Franca do Campo,37.7167,-25.4333,294.38,89,40,3.04,PT,1627255705
195,Porto-Novo,6.4965,2.6036,296.91,80,23,2.7,BJ,1627255466
196,Lata,40.1629,-8.3327,293.17,97,73,1.52,PT,1627255409
197,Matara,5.9485,80.5353,298.29,87,96,4.63,LK,1627255705
198,Alamosa,37.4695,-105.87,297.88,52,75,8.75,US,1627255706
199,Kidderminster,52.3882,-2.25,291.53,83,96,2.65,GB,1627255706
200,Pevek,69.7008,170.3133,274.95,90,100,3.87,RU,1627255706
201,Grand Gaube,-20.0064,57.6608,293.37,60,13,8.41,MU,1627255443
202,Diffa,13.3154,12.6113,300.68,68,99,4.27,NE,1627255706
203,Fortuna,40.5982,-124.1573,311.75,82,1,6.69,US,1627255706
204,Vila Velha,-20.3297,-40.2925,294.12,73,40,2.57,BR,1627255707
205,Grindavik,63.8424,-22.4338,283.12,93,75,10.8,IS,1627255707
206,Meulaboh,4.1363,96.1285,297.69,88,86,2.08,ID,1627255707
207,Bengkulu,-3.8004,102.2655,296.28,83,8,2.34,ID,1627255682
208,Codrington,-38.2667,141.9667,284.98,89,89,7.36,AU,1627255708
209,Mount Isa,-20.7333,139.5,288.02,33,13,3.09,AU,1627255708
210,Rafrāf,37.1904,10.1837,302.32,70,71,1.63,TN,1627255708
211,Roald,62.5833,6.1333,291.43,100,20,4.63,NO,1627256044
212,Dicabisagan,17.0818,122.4157,301.29,73,99,1.48,PH,1627255481
213,Adrar,20.5022,-10.0711,307.03,10,9,1.7,MR,1627255708
214,Armidale,-30.5167,151.65,278.6,69,1,3.54,AU,1627255576
215,Castro,-24.7911,-50.0119,286.55,64,2,1.66,BR,1627255696
216,Thompson,55.7435,-97.8558,291.24,39,40,4.12,CA,1627255705
217,Romitan,39.9343,64.3814,301.12,30,0,4.12,UZ,1627255709
218,Vestmannaeyjar,63.4427,-20.2734,283.51,80,78,9.21,IS,1627255709
219,Biryusinsk,55.9634,97.8235,289.66,76,81,1.66,RU,1627255709
220,Muros,42.7762,-9.0603,291.95,86,8,2.72,ES,1627255710
221,Sibolga,1.7427,98.7792,297.75,82,58,1.27,ID,1627255411
222,Mineiros,-17.5694,-52.5511,294.27,32,0,2.4,BR,1627255710
223,Verāval,20.9,70.3667,298.94,94,100,6.79,IN,1627255531
224,Kinablangan,7.6947,126.5503,300.58,72,74,1.67,PH,1627255710
225,Berlevåg,70.8578,29.0864,280.29,82,99,7.68,NO,1627255711
226,Carnarvon,-24.8667,113.6333,283.19,73,20,2.57,AU,1627255711
227,Carutapera,-1.195,-46.02,297.99,86,85,2.9,BR,1627255711
228,Yellowknife,62.456,-114.3525,290.55,48,20,0.45,CA,1627255702
229,Moncton,46.1159,-64.8019,294.44,57,75,5.66,CA,1627255588
230,Rundu,-17.9333,19.7667,283.76,54,0,3.05,NA,1627255711
231,Nikolayevsk-on-Amur,53.1406,140.73,298.82,70,100,1.58,RU,1627255712
232,Shahr-e Bābak,30.1165,55.1186,297.91,13,0,8.64,IR,1627255712
233,Sarishābāri,24.7333,89.8333,299.7,95,100,4.46,BD,1627255712
234,Kushima,31.4583,131.2333,301.17,89,100,4.0,JP,1627255712
235,Souillac,-20.5167,57.5167,293.36,68,20,4.63,MU,1627255713
236,Tornio,65.8481,24.1466,284.16,91,91,1.57,FI,1627255713
237,San Patricio,28.017,-97.5169,306.78,49,0,5.88,US,1627255713
238,Cabo San Lucas,22.8909,-109.9124,308.6,58,1,4.63,MX,1627255704
239,Mariehamn,60.0973,19.9348,286.07,100,2,0.51,AX,1627255533
240,Cheney,47.4874,-117.5758,310.24,17,1,6.17,US,1627255446
241,Kharagpur,22.3333,87.3333,301.12,80,100,2.75,IN,1627255714
242,Launceston,-41.45,147.1667,280.95,89,60,4.12,AU,1627255710
243,Alyangula,-13.8483,136.4192,296.08,73,93,2.57,AU,1627255714
244,Buala,-8.145,159.5921,301.68,75,38,3.4,SB,1627255455
245,Petropavlovsk-Kamchatskiy,53.0452,158.6483,295.48,60,0,2.0,RU,1627255370
246,Ambilobe,-13.2,49.05,289.69,86,72,1.6,MG,1627255711
247,Northam,51.0333,-4.2167,290.18,95,26,2.26,GB,1627255714
248,Khovd,48.0056,91.6419,290.73,63,43,0.83,MN,1627255460
249,Singkawang,0.9,109.0,297.86,94,49,1.59,ID,1627255715
250,Mayo,38.8876,-76.5119,304.58,77,90,0.45,US,1627255539
251,Bethel,41.3712,-73.414,299.98,85,1,2.06,US,1627255700
252,Rosetta,31.4044,30.4164,298.05,74,0,4.54,EG,1627255715
253,Baykit,61.67,96.37,294.35,68,58,0.94,RU,1627255522
254,Esim,4.8699,-2.2405,297.07,80,60,2.71,GH,1627255452
255,Leshukonskoye,64.8989,45.7622,281.32,80,99,2.21,RU,1627255715
256,Durango,24.8333,-104.8333,301.33,22,19,5.4,MX,1627255419
257,Luga,58.7372,29.8453,287.31,75,17,0.41,RU,1627255716
258,Caledon,-34.23,19.4265,286.02,45,100,2.28,ZA,1627255716
259,Nouadhibou,20.931,-17.0347,295.14,88,20,8.23,MR,1627255716
260,Barra de Tecoanapa,16.5167,-98.75,303.16,72,85,5.35,MX,1627255422
261,Peace River,56.2501,-117.286,298.32,29,75,7.2,CA,1627255717
262,Raudeberg,61.9875,5.1352,290.52,88,31,4.64,NO,1627255717
263,Ko Samui,9.5357,99.9357,301.4,76,100,6.45,TH,1627255717
264,The Valley,18.217,-63.0578,300.43,86,57,8.71,AI,1627255717
265,Rūdbār,30.15,62.6,305.09,18,12,4.44,AF,1627255520
266,Colomi,-17.35,-65.8667,285.16,82,38,2.85,BO,1627255718
267,Kardamena,36.7814,27.1425,298.86,69,0,5.66,GR,1627255718
268,Bubaque,11.2833,-15.8333,299.58,81,100,2.69,GW,1627255718
269,San Jose,37.3394,-121.895,310.07,47,75,6.17,US,1627255531
270,Tam Ky,15.5667,108.4833,302.14,74,99,2.49,VN,1627255719
271,Skibbereen,51.55,-9.2667,292.04,89,40,1.8,IE,1627255719
272,Hay River,60.8156,-115.7999,290.13,55,40,4.12,CA,1627255719
273,Oodweyne,9.4092,45.064,294.1,55,87,8.12,SO,1627256048
274,Mandalgovi,45.7625,106.2708,288.37,79,96,4.28,MN,1627255667
275,Hayrabolu,41.2131,27.1069,293.85,83,0,2.53,TR,1627255720
276,Ségou,13.4317,-6.2157,300.23,70,51,4.61,ML,1627256048
277,Hong Kong,22.2855,114.1577,303.33,87,12,0.45,HK,1627255899
278,Nanortalik,60.1432,-45.2371,280.1,75,51,4.77,GL,1627255706
279,Mnogovershinnyy,53.9353,139.9242,296.79,71,99,1.75,RU,1627255720
280,Arrondissement d'Ajaccio,42.0,8.9167,296.24,83,75,2.06,FR,1627255697
281,Olafsvik,64.8945,-23.7142,283.13,85,89,8.98,IS,1627255720
282,Birao,10.2849,22.7882,294.55,97,100,1.37,CF,1627255721
283,East London,-33.0153,27.9116,287.84,30,9,3.49,ZA,1627255716
284,Laguna,38.421,-121.4238,314.44,20,1,2.24,US,1627255721
285,Ribeira Grande,38.5167,-28.7,294.47,83,21,6.32,PT,1627255721
286,Jalu,29.0331,21.5482,300.31,31,0,5.41,LY,1627255721
287,Stephenville,32.2207,-98.2023,310.22,25,1,3.09,US,1627255424
288,Acapulco de Juárez,16.8634,-99.8901,304.05,74,75,5.14,MX,1627255829
289,Severo-Kuril'sk,50.6789,156.125,287.14,90,81,1.24,RU,1627255722
290,Kosonsoy,41.2561,71.5508,296.46,23,0,2.7,UZ,1627255722
291,Vostok,46.4856,135.8833,299.96,62,94,0.56,RU,1627255722
292,Port Talbot,51.5924,-3.7802,291.24,81,51,2.38,GB,1627255723
293,Broome,42.2506,-75.833,300.47,63,1,0.45,US,1627255723
294,Ilulissat,69.2167,-51.1,284.16,43,100,5.66,GL,1627255723
295,Iqaluit,63.7506,-68.5145,282.0,87,75,2.24,CA,1627255720
296,Longido,-2.7333,36.6833,288.09,57,41,7.91,TZ,1627255631
297,Vao,-22.6667,167.4833,294.82,70,46,7.08,NC,1627255723
298,Teknāf,20.8624,92.3058,298.52,98,100,1.48,BD,1627255697
299,Maceió,-9.6658,-35.7353,295.84,100,75,2.06,BR,1627255724
300,Arlit,18.7369,7.3853,309.91,15,68,4.22,NE,1627255724
301,Swellendam,-34.0226,20.4417,279.36,37,100,3.39,ZA,1627255724
302,Vanavara,60.34,102.2797,292.29,61,47,1.67,RU,1627255725
303,Chui,-33.6971,-53.4616,289.79,92,7,2.25,UY,1627255716
304,Mīrābād,30.4362,61.8383,307.23,14,2,8.61,AF,1627255725
305,Sri Mādhopur,27.4667,75.6,303.02,67,100,1.81,IN,1627255465
306,Manavālakurichi,8.1333,77.3,298.2,89,87,7.99,IN,1627256050
307,Yinchuan,38.4681,106.2731,299.91,34,100,2.02,CN,1627255483
308,Krasnosel'kup,65.7,82.4667,286.19,88,54,3.11,RU,1627255388
309,Koslan,63.4564,48.8989,281.88,97,87,1.31,RU,1627255725
310,Medford,42.3265,-122.8756,309.98,28,1,0.45,US,1627256051
311,Plettenberg Bay,-34.0527,23.3716,287.91,46,99,3.11,ZA,1627255726
312,Galveston,29.3669,-94.9669,309.9,73,1,0.89,US,1627255726
313,Sur,22.5667,59.5289,306.67,52,51,3.36,OM,1627255664
314,Omboué,-1.5746,9.2618,296.1,81,93,2.02,GA,1627256051
315,Guymon,36.6828,-101.4816,303.15,48,75,10.29,US,1627255726
316,Aligoodarz,33.4006,49.6949,296.9,19,53,3.27,IR,1627255727
317,Palmer,42.1584,-72.3287,298.49,76,20,2.57,US,1627255727
318,Neryungri,56.6709,124.6491,289.05,73,8,4.19,RU,1627255727
319,Kupang,-10.1667,123.5833,295.47,88,20,2.06,ID,1627255728
320,Rome,43.2128,-75.4557,300.59,72,1,4.63,US,1627255728
321,Manono,-7.3,27.4167,294.74,40,27,4.95,CD,1627255728
322,Provideniya,64.3833,-173.3,282.21,93,90,3.0,RU,1627255728
323,Chicama,-7.8447,-79.1469,291.45,82,8,3.63,PE,1627256052
324,Sept-Îles,50.2001,-66.3821,291.44,86,90,0.45,CA,1627255729
325,Havre-St-Pierre,50.2334,-63.5986,293.35,64,1,4.12,CA,1627255729
326,Leh,34.1667,77.5833,294.02,47,99,3.69,IN,1627256052
327,Kavaratti,10.5669,72.642,300.49,76,100,8.81,IN,1627255661
328,Pyn U Lwin,22.0333,96.4667,292.8,97,100,0.74,MM,1627255729
329,Cherskiy,68.75,161.3,284.21,52,9,3.64,RU,1627255528
330,Karratha,-20.7377,116.8463,293.0,50,81,1.66,AU,1627255730
331,Belaya Gora,68.5333,146.4167,285.37,44,8,5.11,RU,1627255730
332,Aksu,41.1231,80.2644,300.93,27,0,0.81,CN,1627255730
333,Corning,42.1428,-77.0547,301.18,63,1,1.54,US,1627255730
334,Gazojak,41.1875,61.4036,303.15,33,0,6.71,TM,1627255731
335,Port Moresby,-9.4431,147.1797,296.83,88,20,1.54,PG,1627256053
336,Beloha,-25.1667,45.05,288.9,67,51,4.13,MG,1627255702
337,Clyde River,70.4692,-68.5914,274.28,100,90,2.06,CA,1627255727
338,Bouar,5.934,15.596,291.65,96,100,1.2,CF,1627255731
339,Maningrida,-12.0667,134.2667,298.17,56,37,5.17,AU,1627256053
340,Luena,-11.7833,19.9167,285.0,50,0,2.58,AO,1627255731
341,Xining,36.6167,101.7667,286.67,82,100,1.12,CN,1627255285
342,San Cristobal,7.7669,-72.225,297.25,86,100,1.4,VE,1627255732
343,Catemaco,18.4167,-95.1167,302.01,76,94,1.31,MX,1627255732
344,Fonte Boa,-2.4959,-66.2662,298.58,78,99,0.82,BR,1627255732
345,Mossamedes,-15.1961,12.1522,292.49,80,0,2.47,AO,1627255733
346,Kalmunai,7.4167,81.8167,299.78,78,100,2.1,LK,1627256054
347,Mae Sai,20.4335,99.8762,296.77,100,100,0.2,TH,1627255733
348,Chikhli,20.35,76.25,295.35,89,41,5.76,IN,1627255733
349,Trelew,-43.249,-65.3051,280.77,39,24,6.8,AR,1627255507
350,Kailua,21.4022,-157.7394,305.14,73,75,5.66,US,1627256055
351,Asmara,15.3333,38.9333,288.93,77,98,2.36,ER,1627255734
352,Sorong,-0.8833,131.25,298.45,85,100,4.89,ID,1627255450
353,Goma,-1.6792,29.2228,291.88,68,100,1.42,CD,1627255734
354,Manzhouli,49.6,117.4333,289.48,78,18,2.78,CN,1627255734
355,Aloleng,16.1307,119.7824,301.58,85,100,8.64,PH,1627255734
356,Shenjiamen,29.9576,122.298,298.58,93,100,14.59,CN,1627255506
357,Garissa,-0.4536,39.6401,295.2,69,5,8.11,KE,1627255735
358,Klaksvík,62.2266,-6.589,283.66,95,100,2.49,FO,1627255610
359,High Level,58.5169,-117.136,294.21,60,75,1.54,CA,1627255608
360,Bonavista,48.6499,-53.1147,288.15,91,11,5.35,CA,1627255735
361,Dinguiraye,11.3,-10.7167,295.04,92,99,0.38,GN,1627255735
362,Kungurtug,50.5994,97.5228,285.81,94,89,0.99,RU,1627255736
363,Qaqortoq,60.7167,-46.0333,285.43,69,32,0.92,GL,1627255736
364,Cururupu,-1.8283,-44.8683,296.74,86,64,1.54,BR,1627255417
365,Manggar,-2.8833,108.2667,300.87,71,9,6.23,ID,1627256056
366,São Miguel do Araguaia,-13.275,-50.1628,298.38,35,2,1.86,BR,1627255736
367,Ladário,-19.0047,-57.6017,300.33,34,0,1.25,BR,1627255737
368,Amapá,1.0,-52.0,295.64,97,84,1.07,BR,1627255737
369,Apache Junction,33.4151,-111.5496,301.53,84,75,0.89,US,1627255564
370,Benjamin Constant,-4.3831,-70.0311,300.22,72,100,0.61,BR,1627255737
371,Tabou,4.423,-7.3528,297.41,75,19,2.69,CI,1627255737
372,Tezu,27.9167,96.1667,298.29,98,100,0.8,IN,1627256056
373,Bredasdorp,-34.5322,20.0403,283.86,87,100,3.6,ZA,1627255715
374,Cabra,37.4725,-4.4421,298.84,59,16,0.89,ES,1627255738
375,Laela,-8.5667,32.05,281.32,77,18,2.55,TZ,1627256057
376,Saryg-Sep,51.5,95.6,287.5,97,71,0.94,RU,1627255738
377,Dunedin,-45.8742,170.5036,284.15,65,100,7.6,NZ,1627255472
378,Longyearbyen,78.2186,15.6401,280.06,81,75,4.12,SJ,1627255676
379,San Quintín,30.4833,-115.95,293.59,82,100,3.91,MX,1627255739
380,Česká Lípa,50.6855,14.5376,293.44,91,98,0.42,CZ,1627255739
381,Erenhot,43.6475,111.9767,290.94,69,96,7.09,CN,1627255523
382,Moanda,-1.5575,13.2178,298.4,61,99,1.08,GA,1627255739
383,Rocha,-34.4833,-54.3333,288.04,96,61,3.48,UY,1627255406
384,Warmbad,-28.45,18.7333,286.28,29,90,8.33,NA,1627255740
385,Piaçabuçu,-10.4056,-36.4344,295.69,89,34,4.58,BR,1627255740
386,Pareora,-44.4871,171.2132,282.14,93,100,3.31,NZ,1627255740
387,Tiarei,-17.5333,-149.3333,301.16,66,1,2.83,PF,1627256024
388,Leeton,-34.5667,146.4,284.1,93,75,4.63,AU,1627255740
389,Araouane,18.9048,-3.5265,309.91,27,20,3.17,ML,1627255710
390,Santa Isabel Rio Negro,-0.4139,-65.0192,296.97,97,100,0.98,BR,1627255741
391,Caniço,32.6333,-16.85,298.15,85,20,2.57,PT,1627255741
392,Yokadouma,3.5167,15.05,293.21,98,96,1.06,CM,1627255741
393,Palekastro,35.2,26.25,297.29,79,0,8.99,GR,1627255741
394,Kaeo,-35.1,173.7833,290.55,89,30,5.28,NZ,1627255406
395,Camapuã,-19.5314,-54.0439,298.08,31,0,1.47,BR,1627255742
396,Talara,-4.5772,-81.2719,292.8,84,54,5.47,PE,1627255485
397,Talcahuano,-36.7167,-73.1167,283.97,93,75,3.09,CL,1627255742
398,Nantucket,41.2835,-70.0995,296.48,87,90,7.2,US,1627255742
399,Taoudenni,22.6783,-3.9836,311.72,6,75,4.58,ML,1627255743
400,Bambous Virieux,-20.3428,57.7575,293.29,68,20,4.63,MU,1627256058
401,Kovūr,14.4833,79.9833,302.68,57,68,5.92,IN,1627255743
402,Takoradze,4.8845,-1.7554,296.91,80,18,3.48,GH,1627255743
403,Arroyo de la Encomienda,41.6096,-4.7969,293.27,68,0,5.14,ES,1627255744
404,Shaunavon,49.6501,-108.4181,304.03,15,1,1.37,CA,1627255744
405,Baiyin,36.5583,104.2081,290.64,74,100,5.61,CN,1627255744
406,Boussé,12.6606,-1.8922,299.91,64,71,4.04,BF,1627255744
407,Vestmanna,62.1564,-7.1664,282.66,100,90,2.57,FO,1627255313
408,Tsimmerbude,54.675,20.1347,292.18,75,100,4.37,RU,1627256059
409,Birobidzhan,48.8,132.95,296.55,89,100,2.86,RU,1627255745
410,Beisfjord,68.3751,17.5988,286.13,97,98,1.03,NO,1627255734
411,Ponta do Sol,32.6667,-17.1,298.15,84,0,1.31,PT,1627255707
412,Lüderitz,-26.6481,15.1594,293.07,19,90,3.63,NA,1627256060
413,Tigil',57.8,158.6667,291.65,73,74,6.1,RU,1627255745
414,Juba,4.8517,31.5825,293.0,90,100,0.54,SS,1627255745
415,Saint-Pierre,-21.3393,55.4781,292.95,67,0,2.57,RE,1627256060
416,Ulaanbaatar,47.9077,106.8832,289.22,77,40,1.0,MN,1627255451
417,Khor,47.8861,134.9464,300.98,62,56,3.72,RU,1627255708
418,Eston,51.1501,-108.7514,304.09,25,28,4.75,CA,1627255746
419,Beyneu,45.3167,55.2,302.73,21,67,6.5,KZ,1627255746
420,Wajir,1.7471,40.0573,295.45,63,11,7.58,KE,1627255746
421,Vung Tau,10.346,107.0843,299.52,84,100,6.85,VN,1627255613
422,Āreka,7.0667,37.7,286.54,92,100,0.72,ET,1627255747
423,Khanpur,28.6453,70.6567,308.68,47,83,7.06,PK,1627255747
424,Saldanha,-33.0117,17.9442,283.18,45,100,6.75,ZA,1627255666
425,Sennar,13.5691,33.5672,296.95,84,87,7.28,SD,1627255747
426,Penzance,50.1186,-5.5371,289.69,88,9,3.97,GB,1627255748
427,Suntar,62.1444,117.6319,295.52,58,18,1.77,RU,1627255402
428,Kumul,42.8,93.45,301.26,22,4,5.48,CN,1627255742
429,Rawson,-43.3002,-65.1023,280.67,45,23,6.98,AR,1627256061
430,San Vicente,-26.6167,-54.1333,292.67,56,30,2.35,AR,1627255748
431,Korem,12.5058,39.5228,287.31,78,100,1.43,ET,1627255748
432,Jacareacanga,-6.2222,-57.7528,300.73,43,33,0.88,BR,1627255749
433,Timiryazevskiy,56.49,84.8769,293.76,95,100,1.87,RU,1627255749
434,Refojos de Basto,41.5132,-7.9952,290.98,93,72,0.62,PT,1627255749
435,Yugorsk,61.3133,63.3319,284.36,72,98,2.37,RU,1627255749
436,Christchurch,-43.5333,172.6333,284.82,82,100,3.58,NZ,1627255747
437,Cariré,-3.9506,-40.4733,300.29,39,20,1.17,BR,1627255750
438,Charters Towers,-20.1,146.2667,290.26,31,11,2.85,AU,1627255519
439,Magán,39.9683,-3.931,296.34,41,29,3.23,ES,1627255750
440,Palana,59.1167,159.9667,285.33,92,100,6.81,RU,1627255750
441,Sioux Lookout,50.1001,-91.917,299.36,38,75,6.17,CA,1627255485
442,Cap-aux-Meules,47.3821,-61.8597,290.18,82,20,4.63,CA,1627255751
443,Aransas Pass,27.9095,-97.15,305.2,73,1,3.13,US,1627255541
444,Road Town,18.4167,-64.6167,298.17,94,40,6.17,VG,1627256062
445,Quatre Cocos,-20.2078,57.7625,293.21,60,38,6.48,MU,1627255751
446,Labuhan,-6.8844,112.2051,295.22,86,21,2.78,ID,1627255647
447,Itaqui,-29.1253,-56.5531,296.05,62,58,1.5,BR,1627255752
448,Medicine Hat,50.0501,-110.6683,305.39,22,75,4.63,CA,1627255752
449,Suez,29.9737,32.5263,298.35,79,0,4.41,EG,1627255752
450,La Libertad,-2.2333,-80.9,294.96,88,90,5.66,EC,1627255752
451,Lagoa,39.05,-27.9833,293.7,83,53,5.18,PT,1627256063
452,Makakilo City,21.3469,-158.0858,304.33,56,75,5.14,US,1627255705
453,Manaure,11.7751,-72.4445,299.67,81,100,5.42,CO,1627255753
454,Catalina,32.5056,-110.9211,298.75,76,100,0.49,US,1627255490
455,Nelson Bay,-32.7167,152.15,289.68,56,0,1.79,AU,1627255391
456,Masty,53.4122,24.5387,290.96,72,99,3.47,BY,1627255753
457,Pisco,-13.7,-76.2167,291.18,77,0,3.6,PE,1627255509
458,Price,39.5994,-110.8107,305.99,23,40,7.2,US,1627255753
459,Pangnirtung,66.1451,-65.7125,283.98,87,100,1.01,CA,1627255747
460,Gao,16.6362,1.637,305.73,44,43,5.37,ML,1627255516
461,Thinadhoo,0.5333,72.9333,300.71,71,83,1.07,MV,1627255691
462,Martinez,38.0194,-122.1341,310.86,51,1,4.63,US,1627255754
463,Mikhaylovka,50.06,43.2379,290.2,53,2,3.13,RU,1627255754
464,Cooma,-36.2333,149.1333,283.02,53,20,10.29,AU,1627255470
465,Progreso,21.2833,-89.6667,305.43,72,97,4.81,MX,1627255754
466,Ayan,56.45,138.1667,290.58,85,76,1.92,RU,1627255486
467,Garden City,42.3256,-83.331,304.29,40,40,4.63,US,1627255581
468,Coffs Harbour,-30.3,153.1333,287.13,67,0,2.57,AU,1627255675
469,Mayumba,-3.432,10.6554,294.52,92,83,1.17,GA,1627255755
470,Ţahţā,26.7693,31.5021,300.33,30,0,2.27,EG,1627255755
471,Pangoa,-12.1167,-73.0,296.8,68,51,1.28,PE,1627255755
472,Gigmoto,13.7796,124.39,301.57,79,100,4.53,PH,1627255756
473,Yangi Marg`ilon,40.4272,71.7189,298.83,41,0,3.09,UZ,1627255756
474,Bauta,22.9828,-82.5464,301.09,74,40,1.03,CU,1627255756
475,Loncoche,-39.3667,-72.6333,281.03,94,70,2.33,CL,1627255756
476,Beira,-19.8436,34.8389,290.2,88,40,3.09,MZ,1627255983
477,Aboisso,5.4678,-3.2071,295.89,85,26,1.22,CI,1627255757
478,Nueva Guinea,11.6876,-84.4562,298.58,88,92,3.74,NI,1627255757
479,Bundaberg,-24.85,152.35,289.31,41,8,3.6,AU,1627255757
480,Haapiti,-17.5667,-149.8667,301.0,66,0,4.54,PF,1627255758
481,Avera,33.194,-82.5271,306.43,60,89,2.61,US,1627255758
482,Umm Kaddadah,13.6017,26.6876,301.6,55,97,6.7,SD,1627256065
483,Felipe Carrillo Puerto,19.5833,-88.05,305.05,50,66,2.58,MX,1627255758
484,Imeni Poliny Osipenko,52.4201,136.4853,296.2,74,100,1.87,RU,1627255487
485,São Félix do Xingu,-6.6447,-51.995,297.43,46,59,0.76,BR,1627256065
486,Kutum,14.2,24.6667,296.29,70,99,2.41,SD,1627255479
487,Crotone,39.0851,17.1178,297.0,71,0,3.79,IT,1627255709
488,Malbork,54.0359,19.0266,294.75,83,100,3.07,PL,1627255759
489,Yulara,-25.2406,130.9889,283.06,50,3,2.06,AU,1627255750
490,Tuy Hoa,13.0833,109.3,300.63,64,90,6.82,VN,1627255759
491,Kota Kinabalu,5.9749,116.0724,300.14,83,20,2.06,MY,1627255759
492,San Ramon,37.7799,-121.978,311.39,37,1,2.68,US,1627255541
493,Verkhnevilyuysk,63.4453,120.3167,297.89,54,5,3.12,RU,1627256066
494,Atbasar,51.8,68.3333,288.03,77,3,3.77,KZ,1627255760
495,Honiara,-9.4333,159.95,300.81,77,75,2.43,SB,1627255760
496,Roswell,34.0232,-84.3616,304.66,74,90,0.45,US,1627255760
497,Baltasi,56.3462,50.2062,284.37,56,27,2.75,RU,1627255760
498,Samoded,63.6083,40.5111,283.51,93,66,1.44,RU,1627255761
499,Rio Grande,-32.035,-52.0986,290.9,86,9,3.43,BR,1627255750
500,Mambolo,8.9231,-13.0444,296.75,95,100,1.31,SL,1627255761
501,Sola,-13.8833,167.55,302.52,79,75,2.57,VU,1627255761
502,Yacuiba,-22.038,-63.6797,296.52,51,100,2.33,BO,1627255762
503,Allāpalli,19.4167,80.0667,297.26,94,28,1.63,IN,1627255762
504,Cumpas,29.9833,-109.7833,305.09,36,64,2.91,MX,1627255762
505,Bar Harbor,44.3876,-68.2039,291.67,93,90,5.81,US,1627255762
506,Srīvardhan,18.0333,73.0167,299.73,86,100,8.22,IN,1627256067
507,Yumen,40.2833,97.2,296.26,36,3,5.32,CN,1627255725
508,Khasanya,43.4336,43.5754,293.09,83,90,1.0,RU,1627255763
509,Borūjerd,33.8973,48.7516,300.14,20,60,1.86,IR,1627255763
510,Cabedelo,-6.9811,-34.8339,296.52,84,8,6.04,BR,1627255473
511,Hobyo,5.3505,48.5268,297.59,75,19,10.47,SO,1627255708
512,Lorengau,-2.0226,147.2712,300.61,77,94,3.47,PG,1627255529
513,Myitkyina,25.3833,97.4,296.52,99,100,0.39,MM,1627255497
514,Almeirim,-1.5233,-52.5817,300.8,58,95,0.91,BR,1627255764
515,Ankang,32.68,109.0172,298.51,86,0,0.34,CN,1627255764
516,Santa Maria,-29.6842,-53.8069,300.76,42,0,5.14,BR,1627255764
517,Murray Bridge,-35.1167,139.2667,284.72,75,92,6.74,AU,1627255740
518,Atambua,-9.1061,124.8925,297.79,50,48,1.34,ID,1627256068
519,Karpathos,35.507,27.2132,297.61,85,1,6.06,GR,1627255764
520,Hirara,24.8,125.2833,302.3,94,75,4.63,JP,1627255735
521,Cavarzere,45.1356,12.0817,298.38,77,57,1.9,IT,1627255765
522,Spring Valley,36.108,-115.245,311.41,30,20,0.45,US,1627255765
523,Anderson,34.5334,-82.6499,305.01,75,20,1.54,US,1627255559
524,Naze,28.3667,129.4833,299.66,89,100,7.63,JP,1627255765
525,Tautira,-17.7333,-149.15,301.16,68,1,3.65,PF,1627256069
526,Oberá,-27.4871,-55.1199,295.0,51,85,2.05,AR,1627255766
527,Strezhevoy,60.7333,77.5889,287.14,98,96,4.01,RU,1627255541
528,Brigantine,39.4101,-74.3646,301.66,80,1,2.57,US,1627255766
529,Kenora,49.8167,-94.4337,301.69,28,40,5.66,CA,1627255241
530,Srednekolymsk,67.45,153.6833,283.68,51,100,7.02,RU,1627255525
531,Shelopugino,51.6514,117.5599,287.28,96,99,1.4,RU,1627255766
532,Namatanai,-3.6667,152.4333,301.22,73,84,1.43,PG,1627255390
533,Eyl,7.9803,49.8164,298.31,68,53,9.98,SO,1627255767
534,Chumikan,54.7183,135.315,294.18,74,5,5.63,RU,1627255767
535,Nakhon Si Thammarat,8.25,100.0,301.51,84,100,2.51,TH,1627255767
536,Mandera,3.9366,41.867,297.09,54,93,8.3,KE,1627255753
537,Noyabrsk,63.1994,75.4507,281.98,94,100,7.42,RU,1627255767
538,Sānchor,24.7553,71.7722,301.94,77,100,6.99,IN,1627255768
539,Kapoeta,4.7717,33.5903,294.76,61,100,6.44,SS,1627255517
540,El Silencio,10.5,-66.9167,295.62,83,40,2.57,VE,1627255517
541,Lewistown,40.5992,-77.5714,304.7,61,1,2.57,US,1627255510
542,Jaguarari,-10.2639,-40.1958,291.61,70,4,4.11,BR,1627255768
543,Koumac,-20.5667,164.2833,296.62,68,16,5.31,NC,1627255715
544,Fort Nelson,58.8053,-122.7002,296.92,33,40,4.12,CA,1627255761
545,Belyy Yar,53.6039,91.3903,293.09,88,0,2.0,RU,1627255769
546,Guerrero Negro,27.9769,-114.0611,296.84,64,35,6.89,MX,1627256070
547,Fortuna Foothills,32.6578,-114.4119,309.18,44,40,1.34,US,1627255769
548,Maridi,4.9158,29.4742,292.27,98,100,1.01,SS,1627255517
549,Pitimbu,-7.4706,-34.8086,296.48,86,10,5.78,BR,1627255485
550,Hūn,29.1268,15.9477,299.89,44,0,5.56,LY,1627255769
551,Znamenskoye,57.1281,73.8282,286.55,93,100,4.55,RU,1627255769
552,Neiafu,-18.65,-173.9833,301.53,74,40,1.54,TO,1627255770
553,Omsukchan,62.5333,155.8,285.3,97,100,2.67,RU,1627255636
554,Dingle,10.9995,122.6711,299.75,86,50,4.91,PH,1627255744
555,Giddalūr,15.35,78.9167,298.1,78,29,6.76,IN,1627255770
556,Kewanee,41.2456,-89.9248,302.78,78,88,2.17,US,1627255618
557,Waingapu,-9.6567,120.2641,295.75,77,7,1.55,ID,1627255481
558,São José da Coroa Grande,-8.8978,-35.1478,296.52,87,22,5.27,BR,1627255770
559,Puerto Baquerizo Moreno,-0.9,-89.6,295.2,76,8,5.99,EC,1627255771
560,Puerto Escondido,15.85,-97.0667,304.61,62,40,4.12,MX,1627255739
561,Pocatello,42.8713,-112.4455,307.41,13,1,3.13,US,1627255771
562,Port Macquarie,-31.4333,152.9167,287.8,52,0,3.39,AU,1627255771
563,Udomlya,57.8794,34.9925,286.04,75,27,1.17,RU,1627255603
564,Forsytheganj,52.6333,29.7333,290.49,77,26,2.44,BY,1627255701
565,Kiryat Gat,31.61,34.7642,300.27,83,2,1.85,IL,1627256071
566,Rognan,67.0953,15.3878,285.79,93,88,0.71,NO,1627255772
567,Boa Vista,2.8197,-60.6733,299.14,83,75,1.54,BR,1627255502
568,Markivka,49.5229,39.5705,293.81,53,74,3.55,UA,1627255772
569,Xinzhou,38.4092,112.7333,295.17,84,100,0.43,CN,1627255772
570,Fredericksburg,38.3032,-77.4605,304.79,67,40,1.79,US,1627255761
571,Coro,11.4045,-69.6734,300.15,82,100,2.36,VE,1627255773
572,Lake City,30.1897,-82.6393,303.99,54,40,2.57,US,1627255619
573,Terrace,54.5163,-128.6035,290.1,82,75,4.12,CA,1627255495
574,Huambo,-12.7761,15.7392,286.36,41,0,1.84,AO,1627255773
575,Te Anau,-45.4167,167.7167,280.99,93,100,0.42,NZ,1627255741
576,Tarma,-11.4197,-75.6908,284.74,70,73,2.6,PE,1627255773
577,Slavuta,50.3016,26.8651,290.99,72,70,3.02,UA,1627255774
578,Longhua,23.6137,114.1919,301.26,84,86,0.17,CN,1627255774
579,Normandin,48.8333,-72.5321,296.32,77,54,1.03,CA,1627255774
580,Port Pirie,-33.1833,138.0167,283.2,72,15,6.9,AU,1627255774
581,Malia,35.2833,25.4667,298.07,85,18,4.55,GR,1627255775
582,Shache,38.4167,77.2406,301.78,27,0,2.06,CN,1627255775
583,Jinxiang,27.4327,120.6062,300.11,82,100,4.75,CN,1627255775
584,Bartlesville,36.7473,-95.9808,301.46,52,0,1.22,US,1627255775
585,Matagami,49.7502,-77.6328,294.21,73,40,2.06,CA,1627255495
586,La Paz,-16.5,-68.15,284.14,34,40,2.57,BO,1627255507
587,Angoram,-4.0625,144.0661,297.47,89,88,1.28,PG,1627255776
588,Soria,41.6667,-2.6667,289.82,83,81,2.81,ES,1627255776
589,Epping,-33.7727,151.0818,289.46,63,0,1.34,AU,1627255551
590,Hamilton,39.1834,-84.5333,304.62,72,40,0.45,US,1627255623
591,Sørland,67.667,12.6934,285.49,86,94,2.54,NO,1627255761
592,Demba,-5.51,22.2667,293.81,39,41,1.61,CD,1627255777
593,Kloulklubed,7.0419,134.2556,301.71,75,100,7.59,PW,1627255777
594,Richards Bay,-28.783,32.0377,286.49,85,0,2.89,ZA,1627255777
