,City,Lat,Lng,Max Temp,Humidity,Cloudiness,Wind Speed,Country,Date
0,Yellowknife,62.456,-114.3525,61.29,48,57,8.99,CA,1627441222
1,Tres Arroyos,-38.3739,-60.2798,41.81,76,98,13.94,AR,1627441291
2,Savannah Bight,16.45,-85.85,82.0,78,98,24.61,HN,1627441292
3,Hamilton,39.1834,-84.5333,76.71,82,4,0.38,US,1627441294
4,Hilo,19.7297,-155.09,76.24,93,46,6.02,US,1627441295
5,Salalah,17.0151,54.0924,76.55,94,100,11.99,OM,1627441221
6,Gorontalo,0.5412,123.0595,88.38,61,18,9.84,ID,1627441298
7,Cape Town,-33.9258,18.4232,52.12,87,20,3.44,ZA,1627441008
8,Ushuaia,-54.8,-68.3,38.86,93,90,4.61,AR,1627441007
9,Barrow,71.2906,-156.7887,42.82,91,90,18.41,US,1627441126
10,Albany,42.6001,-73.9662,67.39,93,100,3.0,US,1627441081
11,Newcastle,-32.9272,151.7765,76.78,35,0,12.66,AU,1627441303
12,Ulaanbaatar,47.9077,106.8832,73.53,46,40,4.47,MN,1627441305
13,Lakhipur,26.0299,90.3041,84.97,83,92,8.41,IN,1627441306
14,Careiro da Várzea,-3.2003,-59.8119,83.01,64,4,2.35,BR,1627441307
15,Bethel,41.3712,-73.414,75.11,87,91,4.21,US,1627441309
16,Kahului,20.8947,-156.47,81.97,90,100,14.0,US,1627441310
17,Port Alfred,-33.5906,26.891,60.28,83,11,14.32,ZA,1627441311
18,Taksimo,56.3444,114.8794,81.84,37,81,2.15,RU,1627441312
19,Busselton,-33.65,115.3333,59.04,68,46,19.93,AU,1627441314
20,Norman Wells,65.282,-126.8329,64.44,72,75,3.44,CA,1627441315
21,Dikson,73.5069,80.5464,37.31,99,100,12.08,RU,1627441316
22,Rikitea,-23.1203,-134.9692,74.21,79,100,15.3,PF,1627441318
23,Hermanus,-34.4187,19.2345,51.91,66,99,12.21,ZA,1627441319
24,Butaritari,3.0707,172.7902,81.66,72,100,4.5,KI,1627441320
25,Kapaa,22.0752,-159.319,82.38,79,100,1.99,US,1627441321
26,Geraldton,-28.7667,114.6,67.12,68,90,6.91,AU,1627441323
27,Hobart,-42.8794,147.3294,56.26,57,75,8.01,AU,1627441219
28,Airai,-8.9266,125.4092,76.06,34,89,4.88,TL,1627441325
29,Castro,-24.7911,-50.0119,46.02,91,100,7.02,BR,1627441230
30,Cherskiy,68.75,161.3,38.23,75,100,18.63,RU,1627441328
31,Vaini,-21.2,-175.2,70.99,71,100,18.32,TO,1627441329
32,Provideniya,64.3833,-173.3,50.11,81,90,22.37,RU,1627441330
33,Faanui,-16.4833,-151.75,77.81,75,63,8.3,PF,1627441332
34,East London,-33.0153,27.9116,63.9,80,0,12.73,ZA,1627441333
35,Bredasdorp,-34.5322,20.0403,49.28,63,100,9.78,ZA,1627441334
36,Punta Arenas,-53.15,-70.9167,44.11,81,100,10.2,CL,1627441335
37,New Norfolk,-42.7826,147.0587,55.92,64,53,5.01,AU,1627441337
38,Codrington,-38.2667,141.9667,50.61,81,94,23.96,AU,1627441338
39,Jimo,36.3897,120.4622,83.12,70,97,12.91,CN,1627441339
40,La Ronge,55.1001,-105.2842,64.62,77,40,10.36,CA,1627441341
41,Bambous Virieux,-20.3428,57.7575,68.25,94,75,14.97,MU,1627441342
42,Saint-Augustin,51.226,-58.6502,60.49,98,100,6.73,CA,1627441343
43,Makkah al Mukarramah,21.4267,39.8261,80.37,81,99,4.34,SA,1627441335
44,Bilma,18.6853,12.9164,86.54,48,98,7.18,NE,1627441077
45,Mount Gambier,-37.8333,140.7667,46.31,87,75,29.93,AU,1627441347
46,Mazamari,-11.3258,-74.5308,71.47,83,94,2.06,PE,1627441348
47,Chapais,49.7834,-74.8492,50.9,64,82,4.0,CA,1627441349
48,Upernavik,72.7868,-56.1549,49.1,75,98,8.81,GL,1627441350
49,Kirkenær,60.4564,12.0582,64.04,97,100,5.64,NO,1627441352
50,Pangkalanbuun,-2.6833,111.6167,87.24,61,87,4.9,ID,1627441325
51,Atuona,-9.8,-139.0333,77.83,71,1,17.92,PF,1627441354
52,Yangi Marg`ilon,40.4272,71.7189,83.12,34,2,4.61,UZ,1627441355
53,Vao,-22.6667,167.4833,68.31,62,32,15.64,NC,1627441357
54,Nagato,34.3833,131.2,83.19,70,87,11.1,JP,1627441358
55,Batemans Bay,-35.7167,150.1833,69.1,42,90,14.05,AU,1627441359
56,Nānākuli,21.3906,-158.1547,83.03,70,100,15.3,US,1627441360
57,Padang,-0.9492,100.3543,84.02,71,86,3.31,ID,1627441300
58,Saint-Philippe,-21.3585,55.7679,67.59,88,89,12.86,RE,1627441363
59,Port Elizabeth,-33.918,25.5701,55.09,80,27,14.92,ZA,1627441364
60,Marzuq,14.4,46.4667,73.38,78,8,7.72,YE,1627441366
61,Severo-Kuril'sk,50.6789,156.125,59.94,88,100,6.98,RU,1627441367
62,Sabha,27.0377,14.4283,80.69,25,0,11.05,LY,1627441368
63,Mataura,-46.1927,168.8643,52.48,79,79,1.45,NZ,1627441369
64,Tumarbong,10.3766,119.4579,88.27,62,69,11.36,PH,1627441371
65,Winslow,35.0242,-110.6974,80.78,45,40,1.01,US,1627441372
66,Lebu,-37.6167,-73.65,45.07,81,0,19.69,CL,1627441373
67,Mount Isa,-20.7333,139.5,85.77,23,8,11.5,AU,1627441255
68,Fairbanks,64.8378,-147.7164,60.1,91,100,4.43,US,1627441376
69,Tessalit,20.1986,1.0114,85.42,46,67,10.18,ML,1627441377
70,Tasiilaq,65.6145,-37.6368,37.56,79,22,7.31,GL,1627441348
71,Amga,60.8953,131.9608,75.85,37,8,8.05,RU,1627441379
72,Aksu,41.1231,80.2644,92.82,21,91,9.26,CN,1627441381
73,Meulaboh,4.1363,96.1285,82.92,73,53,1.1,ID,1627441382
74,Sumkino,58.1108,68.3244,53.28,88,80,2.1,RU,1627441383
75,Nouadhibou,20.931,-17.0347,68.13,91,16,24.61,MR,1627441385
76,Carnarvon,-24.8667,113.6333,66.74,54,100,4.34,AU,1627441358
77,Cabo San Lucas,22.8909,-109.9124,86.81,74,7,8.01,MX,1627441286
78,Poum,-20.2333,164.0167,72.55,59,5,14.52,NC,1627441388
79,Guane,22.2025,-84.0875,78.28,85,24,4.18,CU,1627441389
80,Partizanskoye,55.5006,94.39,55.81,94,100,5.03,RU,1627441391
81,Banjar,-8.19,114.9675,82.26,50,12,2.3,ID,1627441392
82,Strezhevoy,60.7333,77.5889,58.98,71,40,7.76,RU,1627441393
83,Berdigestyakh,62.0989,126.6992,74.23,35,34,7.43,RU,1627441395
84,Richards Bay,-28.783,32.0377,58.82,70,0,12.5,ZA,1627441396
85,Auki,-8.7676,160.7034,85.82,60,92,3.67,SB,1627441397
86,Kruisfontein,-34.0033,24.7314,52.88,86,26,12.77,ZA,1627441398
87,Bluff,-46.6,168.3333,52.81,70,32,6.6,NZ,1627441400
88,Berlevåg,70.8578,29.0864,42.8,87,98,6.17,NO,1627441401
89,High Rock,26.6208,-78.2833,83.98,71,0,8.43,BS,1627441394
90,Nome,64.5011,-165.4064,50.16,93,90,13.8,US,1627441403
91,Thompson,55.7435,-97.8558,65.61,61,95,9.42,CA,1627441405
92,Ust-Kuyga,70.0167,135.6,56.05,46,5,14.52,RU,1627441406
93,Qasigiannguit,68.8193,-51.1922,53.85,82,98,7.7,GL,1627441407
94,Esperance,-33.8667,121.9,58.64,52,3,18.57,AU,1627441391
95,Arraial do Cabo,-22.9661,-42.0278,70.21,84,0,19.93,BR,1627441410
96,Nālūt,30.3333,10.85,76.19,41,0,15.61,LY,1627441411
97,San Cristobal,7.7669,-72.225,65.46,95,60,1.5,VE,1627441412
98,Chui,-33.6971,-53.4616,43.18,73,49,16.15,UY,1627441414
99,Ribeira Grande,38.5167,-28.7,72.01,85,55,8.61,PT,1627441415
100,Adrar,20.5022,-10.0711,85.05,36,100,12.01,MR,1627441374
101,Hithadhoo,-0.6,73.0833,80.74,78,61,9.01,MV,1627441417
102,Kaili,-3.4626,120.2147,79.05,59,50,4.97,ID,1627441418
103,Shimoda,34.6667,138.95,83.17,71,94,11.95,JP,1627441420
104,Hong Kong,22.2855,114.1577,93.04,80,99,4.0,HK,1627441421
105,Qaanaaq,77.484,-69.3632,42.28,91,98,5.75,GL,1627441422
106,Zaysan,47.4667,84.8667,71.2,30,0,8.99,KZ,1627441424
107,Tiksi,71.6872,128.8694,41.74,80,15,14.43,RU,1627441425
108,Coromandel,-18.4733,-47.2003,61.27,44,5,3.42,BR,1627441426
109,Avera,33.194,-82.5271,82.71,67,89,3.78,US,1627441427
110,Lahat,-3.8,103.5333,84.83,42,58,2.13,ID,1627441429
111,Villazón,-22.0866,-65.5942,36.82,20,0,6.17,BO,1627441430
112,General Pico,-35.6566,-63.7568,38.55,55,14,12.73,AR,1627441431
113,São Filipe,14.8961,-24.4956,73.83,82,9,8.72,CV,1627441433
114,Cabinda,-5.55,12.2,72.68,89,99,8.23,AO,1627441434
115,Northam,51.0333,-4.2167,61.66,93,24,7.81,GB,1627441435
116,Pitimbu,-7.4706,-34.8086,74.93,85,12,7.83,BR,1627441436
117,Heinola,61.2056,26.0381,66.29,58,100,4.47,FI,1627441438
118,Khatanga,71.9667,102.5,85.77,39,8,18.66,RU,1627441439
119,Anáhuac,27.2333,-100.15,90.45,33,99,13.49,MX,1627441440
120,Fare,-16.7,-151.0167,78.08,74,25,9.6,PF,1627441442
121,Aktas,49.7789,72.9608,62.35,40,0,3.0,KZ,1627441443
122,Iqaluit,63.7506,-68.5145,43.7,75,100,8.99,CA,1627441364
123,Porosozero,62.7191,32.727,59.4,68,85,4.14,RU,1627441445
124,Puerto Madryn,-42.7692,-65.0385,39.85,76,8,13.29,AR,1627441267
125,Yulara,-25.2406,130.9889,69.55,38,74,2.59,AU,1627441432
126,St. George's,12.0564,-61.7485,79.45,78,9,13.29,GD,1627441449
127,Nesna,66.1967,13.0213,65.41,61,41,14.23,NO,1627441450
128,Guthrie,35.8789,-97.4253,86.56,81,3,8.41,US,1627441157
129,Jagalūr,14.5333,76.35,73.15,81,100,17.87,IN,1627441452
130,Jamestown,42.097,-79.2353,68.72,94,0,3.8,US,1627441187
131,Nikolskoye,59.7035,30.7861,67.8,68,100,4.79,RU,1627441455
132,Quatre Cocos,-20.2078,57.7625,68.11,90,99,18.34,MU,1627441456
133,Puerto Baquerizo Moreno,-0.9,-89.6,71.31,83,1,11.3,EC,1627441457
134,Ayamé,5.6083,-3.1563,71.62,92,99,3.29,CI,1627441458
135,Batagay-Alyta,67.8006,130.4114,53.83,47,30,14.97,RU,1627441460
136,Alofi,-19.0595,-169.9187,75.09,88,75,5.75,NU,1627441444
137,Uyuni,-20.4597,-66.825,34.92,40,1,21.43,BO,1627441462
138,Fortuna,40.5982,-124.1573,75.47,92,90,4.61,US,1627441463
139,Cockburn Town,21.4612,-71.1419,81.61,78,16,18.81,TC,1627441465
140,Zemio,5.0314,25.1361,69.39,91,100,0.94,CF,1627441466
141,Nagari,13.3333,79.5833,85.89,52,100,10.67,IN,1627441467
142,Payo,-3.7508,103.6372,84.61,44,50,2.71,ID,1627441468
143,Hasaki,35.7333,140.8333,88.29,79,100,21.63,JP,1627441470
144,Ankara,39.9199,32.8543,61.99,54,0,2.3,TR,1627441471
145,Laas,46.6166,10.7002,61.54,94,66,2.8,IT,1627441472
146,Mahébourg,-20.4081,57.7,68.29,94,75,14.97,MU,1627441474
147,Sovetskiy,61.3614,63.5842,47.28,78,97,6.02,RU,1627441475
148,Gari,59.4307,62.3497,45.36,96,90,5.95,RU,1627441476
149,Raudeberg,61.9875,5.1352,61.47,96,100,6.35,NO,1627441477
150,Raahe,64.6833,24.4833,59.09,71,56,4.88,FI,1627441479
151,Toora-Khem,52.4675,96.11,62.22,93,100,1.79,RU,1627441480
152,Atar,20.5169,-13.0499,86.11,31,18,3.53,MR,1627441481
153,Aklavik,68.2191,-135.0107,61.52,66,99,5.53,CA,1627441483
154,Kumul,42.8,93.45,96.26,12,13,11.36,CN,1627441484
155,Saint Paul Harbor,57.79,-152.4072,62.11,59,90,9.22,US,1627441485
156,Kavieng,-2.5744,150.7967,84.09,73,13,7.09,PG,1627441395
157,Morwell,-38.2333,146.4,58.68,65,61,9.86,AU,1627441487
158,Chuzhou,32.3219,118.2978,76.35,97,100,17.78,CN,1627441489
159,Muli,2.9167,73.5667,80.53,78,100,8.43,MV,1627441490
160,Pacific Grove,36.6177,-121.9166,77.76,85,40,3.0,US,1627441373
161,Russell,32.3502,-85.1999,76.51,88,40,4.61,US,1627441492
162,Yaqui,27.3667,-110.1667,88.11,55,20,9.26,MX,1627441494
163,Ixtapa,20.7,-105.2,77.23,96,55,4.0,MX,1627440920
164,Morehead,37.2711,-87.1764,80.31,95,1,0.0,US,1627441496
165,Tuktoyaktuk,69.4541,-133.0374,44.76,91,100,11.86,CA,1627441429
166,San Andrés,12.5847,-81.7006,82.42,83,75,8.05,CO,1627441498
167,Beringovskiy,63.05,179.3167,48.49,87,100,19.35,RU,1627441500
168,Yumen,40.2833,97.2,85.23,15,0,6.89,CN,1627441501
169,Ribnitz-Damgarten,54.25,12.4667,67.1,63,100,5.23,DE,1627441502
170,Roald,62.5833,6.1333,64.9,94,90,3.44,NO,1627441504
171,Cidreira,-30.1811,-50.2056,46.4,59,4,17.81,BR,1627441505
172,Altay,47.8667,88.1167,72.52,41,0,7.18,CN,1627441506
173,Vostok,46.4856,135.8833,87.28,57,73,0.85,RU,1627441508
174,Omsukchan,62.5333,155.8,46.15,68,100,8.21,RU,1627441509
175,Farmington,36.7281,-108.2187,74.08,54,75,14.97,US,1627441510
176,Eureka,40.8021,-124.1637,74.68,75,100,4.05,US,1627441418
177,Kovdor,67.5662,30.4758,57.79,92,6,2.21,RU,1627441513
178,Starosubkhangulovo,53.1031,57.4423,60.98,73,42,2.08,RU,1627441514
179,Angoram,-4.0625,144.0661,90.79,53,29,3.29,PG,1627441515
180,Micheweni,-4.9667,39.8333,73.71,82,9,13.85,TZ,1627441517
181,‘Āhuimanu,21.4447,-157.8378,87.51,65,75,11.5,US,1627441518
182,Avarua,-21.2078,-159.775,77.05,65,21,4.61,CK,1627441372
183,Oranjemund,-28.55,16.4333,52.61,82,0,5.3,NA,1627441520
184,Saskylakh,71.9167,114.0833,66.76,38,16,19.46,RU,1627441522
185,Mar del Plata,-38.0023,-57.5575,46.13,67,96,8.99,AR,1627441523
186,Nantucket,41.2835,-70.0995,71.15,86,18,13.67,US,1627441450
187,eMkhomazi,-30.2067,30.7978,57.67,26,0,6.67,ZA,1627441525
188,Menongue,-14.6585,17.691,45.03,51,1,4.79,AO,1627441526
189,Aswān,24.0934,32.907,85.23,28,93,9.26,EG,1627441528
190,Cap-aux-Meules,47.3821,-61.8597,63.12,89,100,7.67,CA,1627441529
191,Wanning,18.8003,110.3967,91.47,61,100,7.61,CN,1627441530
192,Lorengau,-2.0226,147.2712,84.58,72,5,6.29,PG,1627441532
193,Honiara,-9.4333,159.95,84.33,73,94,8.84,SB,1627441533
194,Husavik,66.0449,-17.3389,49.82,98,100,9.98,IS,1627441534
195,George Town,5.4112,100.3354,87.73,74,20,3.0,MY,1627440954
196,Egvekinot,66.3167,-179.1667,39.74,90,100,11.77,RU,1627441536
197,Margate,51.3813,1.3862,63.3,88,100,4.0,GB,1627441538
198,Sistranda,63.7256,8.834,64.36,74,72,21.39,NO,1627441539
199,Kieta,-6.2167,155.6333,84.24,69,99,4.45,PG,1627441540
200,Chokurdakh,70.6333,147.9167,50.61,44,55,13.98,RU,1627441542
201,Longyearbyen,78.2186,15.6401,42.49,98,100,0.78,SJ,1627441543
202,Suba,10.8438,121.0102,84.31,78,82,21.05,PH,1627441544
203,Valparaíso,-33.0393,-71.6273,52.48,75,0,3.44,CL,1627441508
204,Port Moresby,-9.4431,147.1797,80.6,82,96,8.61,PG,1627441546
205,Yarim,14.298,44.3779,58.91,74,49,2.8,YE,1627441548
206,Ambon City,-3.6954,128.1814,87.94,70,40,6.91,ID,1627441549
207,Unity,52.4501,-109.1682,74.05,31,79,10.65,CA,1627441550
208,Suda,59.1525,37.5582,55.51,89,64,3.67,RU,1627441552
209,Lata,40.1629,-8.3327,62.92,98,28,2.28,PT,1627441553
210,San Quintín,30.4833,-115.95,69.66,84,1,12.03,MX,1627441554
211,Rodolfo Sánchez Taboada,31.7167,-116.5667,74.19,81,22,1.01,MX,1627441511
212,Turbiv,49.3479,28.7212,65.1,86,36,6.44,UA,1627441556
213,Sørland,67.667,12.6934,55.63,88,8,10.27,NO,1627441558
214,Lüderitz,-26.6481,15.1594,54.54,72,0,9.17,NA,1627441559
215,Rocha,-34.4833,-54.3333,45.34,80,99,16.75,UY,1627441434
216,Holme,56.1138,10.1725,60.37,93,98,7.81,DK,1627441561
217,Sola,-13.8833,167.55,78.91,80,39,21.79,VU,1627441563
218,Mehamn,71.0357,27.8492,42.75,100,90,3.44,NO,1627441564
219,Broome,42.2506,-75.833,67.55,97,90,1.01,US,1627441565
220,Gunjur,13.2019,-16.7339,78.87,83,40,0.0,GM,1627441566
221,Djibouti,11.5,42.5,85.42,58,74,4.45,DJ,1627441568
222,Puerto Ayora,-0.7393,-90.3518,71.38,84,20,8.84,EC,1627441569
223,Flagstaff,35.1981,-111.6513,71.26,66,1,5.99,US,1627441570
224,Ciudad Guayana,8.3533,-62.6528,78.53,95,100,4.43,VE,1627441572
225,Sabzawār,36.2126,57.6819,81.21,20,0,21.52,IR,1627441573
226,Luena,-11.7833,19.9167,45.5,50,95,3.44,AO,1627441574
227,Alta Floresta,-9.8756,-56.0861,72.03,44,3,3.29,BR,1627441576
228,Boysun,38.2061,67.1986,82.2,24,0,4.0,UZ,1627441577
229,Rondonópolis,-16.4708,-54.6356,66.58,73,5,8.63,BR,1627441578
230,Tilichiki,60.4667,166.1,61.21,50,90,15.75,RU,1627441579
231,Biggar,55.6167,-3.5167,58.64,98,100,2.51,GB,1627441581
232,Puerto Maldonado,-12.6,-69.1833,69.78,91,43,2.77,PE,1627441582
233,Inhambane,-23.865,35.3833,64.2,65,0,5.86,MZ,1627441549
234,Abhā,18.2164,42.5053,62.85,88,86,0.0,SA,1627441584
235,Plettenberg Bay,-34.0527,23.3716,55.78,83,100,10.13,ZA,1627441586
236,Manadhoo,5.7667,73.3833,82.62,76,74,14.81,MV,1627441587
237,Vallenar,-28.5708,-70.7581,54.57,50,0,3.98,CL,1627441588
238,Tranby,59.8167,10.25,64.08,96,100,1.99,NO,1627441589
239,Xining,36.6167,101.7667,65.73,47,41,3.33,CN,1627441495
240,Vestmannaeyjar,63.4427,-20.2734,53.13,84,33,2.91,IS,1627441592
241,Agirish,61.9247,63.0231,46.62,72,73,9.98,RU,1627441593
242,Tha Bo,17.85,102.5814,87.98,83,75,2.3,TH,1627441594
243,Samarai,-10.6167,150.6667,79.39,86,86,14.23,PG,1627441596
244,Henties Bay,-22.116,14.2845,54.86,82,0,5.37,NA,1627441541
245,Ulaangom,49.9811,92.0667,71.69,46,1,8.7,MN,1627441598
246,Marsala,37.7966,12.4352,81.55,67,0,6.71,IT,1627441599
247,Talnakh,69.4865,88.3972,61.65,86,96,4.45,RU,1627441601
248,Tsimmerbude,54.675,20.1347,64.45,91,49,7.47,RU,1627441602
249,Pyryatyn,50.2445,32.5107,67.59,55,92,7.61,UA,1627441603
250,Mocuba,-16.8392,36.9856,59.83,96,99,2.8,MZ,1627441604
251,Port Alberni,49.2413,-124.8028,77.94,46,0,5.01,CA,1627441606
252,Flin Flon,54.7682,-101.865,64.96,66,6,4.68,CA,1627441607
253,Alappuzha,9.49,76.3264,79.56,79,98,5.35,IN,1627441608
254,Shaunavon,49.6501,-108.4181,79.5,27,89,9.44,CA,1627441609
255,Ancud,-41.8697,-73.8203,44.49,86,71,3.51,CL,1627441390
256,Paragominas,-2.9667,-47.4833,76.37,78,98,4.72,BR,1627441612
257,Yuzhne,46.6221,31.1013,68.22,58,24,6.06,UA,1627441613
258,Qūchān,37.106,58.5095,73.9,24,0,11.79,IR,1627441614
259,Khvorostyanka,52.6096,48.9597,65.34,67,43,7.2,RU,1627441616
260,Alghero,40.5589,8.3181,69.89,100,0,2.3,IT,1627441617
261,Neiafu,-18.65,-173.9833,70.48,94,90,0.0,TO,1627441618
262,Lethem,3.3803,-59.7968,74.17,90,94,5.95,GY,1627441620
263,Vanavara,60.34,102.2797,86.27,33,0,1.14,RU,1627441593
264,Międzyrzec Podlaski,51.9864,22.7825,65.14,83,77,5.53,PL,1627441622
265,Mahanoro,-19.9,48.8,63.55,78,71,8.43,MG,1627441623
266,Balaipungut,1.05,101.2833,84.61,45,65,5.68,ID,1627441625
267,Buala,-8.145,159.5921,83.64,73,93,9.31,SB,1627441626
268,Mundo Nuevo (Ojo de Agua),18.7,-95.5,81.05,77,43,9.06,MX,1627441627
269,Wanlaweyn,2.6185,44.8938,74.08,79,97,12.57,SO,1627441629
270,Linares,-35.85,-71.6,38.21,83,0,3.42,CL,1627441630
271,Port-Gentil,-0.7193,8.7815,75.25,80,33,9.73,GA,1627441631
272,Bowen,-20.0167,148.2333,74.03,57,6,9.53,AU,1627441632
273,Tateyama,34.9833,139.8667,87.98,77,100,20.29,JP,1627441634
274,Grand Gaube,-20.0064,57.6608,68.4,91,95,11.99,MU,1627441635
275,Duvan,55.695,57.9024,51.85,81,99,6.02,RU,1627441636
276,Severo-Yeniseyskiy,60.3725,93.0408,59.38,65,100,7.94,RU,1627441638
277,La Palma,33.8464,-118.0467,90.01,73,1,3.0,US,1627441639
278,Bandundu Province,-3.3167,17.3667,67.21,32,3,3.04,CD,1627441640
279,Beibei,29.8256,106.4339,92.37,67,13,2.3,CN,1627441517
280,Labuhan,-6.8844,112.2051,84.78,58,5,4.05,ID,1627441643
281,Dāmghān,36.1683,54.348,80.37,42,0,5.66,IR,1627441635
282,Casablanca,33.5928,-7.6192,73.62,83,22,11.01,MA,1627441645
283,Demikhovo,55.7968,38.884,60.66,72,43,3.74,RU,1627441646
284,Bereket,39.2446,55.5154,91.08,17,30,6.73,TM,1627441647
285,Kikwit,-5.041,18.8162,64.4,28,3,2.8,CD,1627441649
286,Saldanha,-33.0117,17.9442,55.13,65,100,5.46,ZA,1627441635
287,Marsá Maţrūḩ,31.3525,27.2453,77.29,74,0,9.62,EG,1627441651
288,Te Anau,-45.4167,167.7167,52.32,70,93,3.0,NZ,1627441652
289,Long Branch,40.3043,-73.9924,80.01,65,1,4.61,US,1627441565
290,Kaitangata,-46.2817,169.8464,51.08,66,68,1.03,NZ,1627441589
291,Klaksvík,62.2266,-6.589,50.92,96,99,4.61,FO,1627441408
292,Khani,41.9563,42.9566,62.17,93,96,2.42,GE,1627441654
293,Paracuru,-3.41,-39.0306,80.11,87,8,10.09,BR,1627441658
294,Ylivieska,64.0833,24.55,66.31,70,94,4.09,FI,1627441659
295,Ilulissat,69.2167,-51.1,53.62,62,100,9.22,GL,1627441661
296,Sydney Mines,46.2367,-60.2177,66.69,95,90,1.99,CA,1627441662
297,San Patricio,28.017,-97.5169,84.85,68,20,7.65,US,1627441642
298,Paciran,-6.8767,112.3761,84.02,61,4,2.17,ID,1627441664
299,Namatanai,-3.6667,152.4333,84.83,67,25,4.99,PG,1627441621
300,Robertsport,6.7533,-11.3686,77.34,80,100,13.31,LR,1627441666
301,Ballitoville,-29.539,31.2144,57.24,31,0,5.53,ZA,1627441668
302,Nikolayevsk-on-Amur,53.1406,140.73,80.02,65,98,2.55,RU,1627441669
303,Amapá,1.0,-52.0,70.61,99,7,2.06,BR,1627441670
304,Ryōtsu-minato,38.0833,138.4333,80.53,73,26,5.08,JP,1627441672
305,Ostrovnoy,68.0531,39.5131,48.52,89,100,10.25,RU,1627441672
306,Norden,53.6,7.2,60.96,94,100,13.42,DE,1627441674
307,Korop,51.5664,32.9586,64.49,72,99,6.62,UA,1627441675
308,Pangoa,-12.1167,-73.0,67.71,88,49,3.47,PE,1627441676
309,Portland,45.5234,-122.6762,84.2,43,40,1.01,US,1627441445
310,Pisco,-13.7,-76.2167,63.01,82,4,3.44,PE,1627441679
311,Mapiripán,2.8892,-72.1256,73.8,95,100,0.94,CO,1627441680
312,Lompoc,34.6391,-120.4579,71.56,84,90,9.22,US,1627441653
313,Cayenne,4.9333,-52.3333,82.09,82,0,3.0,GF,1627441682
314,Torbay,47.6666,-52.7314,65.75,97,100,10.92,CA,1627441529
315,Altamira,-3.2033,-52.2064,73.54,60,10,2.75,BR,1627441685
316,Bemidji,47.4736,-94.8803,73.56,79,1,5.75,US,1627441686
317,Lüleburgaz,41.4039,27.3592,72.77,56,0,4.94,TR,1627441687
318,Pevek,69.7008,170.3133,38.44,86,97,9.69,RU,1627441589
319,Bonthe,7.5264,-12.505,76.57,85,100,9.62,SL,1627441690
320,Kysyl-Syr,63.8986,122.7617,74.37,36,9,7.83,RU,1627441691
321,Vikhorevka,56.1201,101.1636,80.19,43,5,1.21,RU,1627441692
322,Saint George,37.1041,-113.5841,93.63,31,1,5.01,US,1627441531
323,Souillac,-20.5167,57.5167,68.38,94,75,14.97,MU,1627441631
324,Esim,4.8699,-2.2405,75.58,81,100,8.93,GH,1627441696
325,Turaif,31.6725,38.6637,77.11,40,0,8.08,SA,1627441697
326,Bonito,-21.1211,-56.4819,55.8,36,93,9.33,BR,1627441646
327,Bengkulu,-3.8004,102.2655,82.89,63,66,4.32,ID,1627441699
328,Sioux Lookout,50.1001,-91.917,64.94,49,1,2.37,CA,1627441701
329,Clonakilty,51.6231,-8.8706,54.61,85,70,11.81,IE,1627441702
330,Laguna,38.421,-121.4238,90.43,36,1,5.01,US,1627441654
331,Ketchikan,55.3422,-131.6461,60.08,74,16,2.57,US,1627441524
332,Caraz,-9.0486,-77.81,61.63,81,42,1.05,PE,1627441705
333,Heide,54.2,9.1,63.1,87,100,9.75,DE,1627441707
334,Agüimes,27.9054,-15.4461,68.67,73,75,23.02,ES,1627441571
335,Joshīmath,30.5667,79.5667,76.86,85,99,3.58,IN,1627441628
336,Oranjestad,12.524,-70.027,82.35,78,20,13.8,AW,1627441710
337,Itarantim,-15.6597,-40.0656,63.14,95,37,0.56,BR,1627441711
338,Sept-Îles,50.2001,-66.3821,59.05,79,100,1.99,CA,1627441713
339,Saint-Joseph,-21.3667,55.6167,66.58,85,59,14.09,RE,1627441714
340,Hailar,49.2,119.7,75.07,55,74,11.16,CN,1627441715
341,Santa Maria,-29.6842,-53.8069,39.7,67,2,6.8,BR,1627441716
342,Oussouye,12.485,-16.5469,78.98,80,100,7.45,SN,1627441718
343,Posse,-14.0931,-46.3694,65.23,38,10,2.8,BR,1627441719
344,Lobito,-12.3481,13.5456,69.26,86,45,2.57,AO,1627441720
345,Alyangula,-13.8483,136.4192,79.81,65,72,5.91,AU,1627441538
346,Soddy-Daisy,35.2359,-85.1908,80.44,87,84,3.42,US,1627441723
347,Grenville,12.1167,-61.6167,80.65,77,23,15.7,GD,1627441724
348,Bhadrāchalam,17.6667,80.8833,81.66,76,100,9.89,IN,1627441629
349,Nyurba,63.2842,118.3319,81.25,44,12,5.17,RU,1627441654
350,Atambua,-9.1061,124.8925,85.17,43,69,3.4,ID,1627441728
351,Ponta do Sol,32.6667,-17.1,70.72,77,3,3.98,PT,1627441638
352,Talā,30.6803,30.9429,71.06,85,0,4.97,EG,1627441731
353,Havelock,34.8791,-76.9013,82.94,91,69,5.79,US,1627441728
354,Kavaratti,10.5669,72.642,81.59,78,100,19.73,IN,1627441589
355,Borogontsy,62.6683,131.1683,72.82,34,9,5.64,RU,1627441690
356,Kyzyl-Suu,42.3414,78.0056,73.71,50,32,3.58,KG,1627441735
357,Nemuro,43.3236,145.575,67.8,88,24,10.13,JP,1627441737
358,Kloulklubed,7.0419,134.2556,83.77,77,85,12.35,PW,1627441738
359,Athabasca,54.7169,-113.2854,67.15,39,0,7.47,CA,1627441609
360,Mayumba,-3.432,10.6554,72.7,88,99,2.66,GA,1627441740
361,Okhotsk,59.3833,143.3,62.49,81,73,12.55,RU,1627441741
362,Oyama,36.3,139.8,89.89,47,34,3.85,JP,1627441743
363,Novo Aripuanã,-5.1206,-60.3797,75.58,54,1,1.19,BR,1627441744
364,Mineiros,-17.5694,-52.5511,63.32,76,28,5.17,BR,1627441745
365,Alim,9.5649,122.4876,84.22,77,77,14.63,PH,1627441694
366,Edzell,56.8095,-2.6549,60.8,98,100,4.29,GB,1627441748
367,Tigre,-34.426,-58.5796,47.21,68,75,21.85,AR,1627441703
368,Saint-François,46.4154,3.9054,63.48,99,75,3.44,FR,1627441568
369,Eyl,7.9803,49.8164,78.57,58,100,20.56,SO,1627441751
370,Pital,2.2665,-75.8044,65.39,91,15,4.05,CO,1627441752
371,Vardø,70.3705,31.1107,46.6,86,97,13.94,NO,1627441754
372,Delījān,33.9905,50.6838,82.65,22,0,3.96,IR,1627441635
373,Maniitsoq,65.4167,-52.9,49.41,76,25,14.74,GL,1627441567
374,Crixás,-14.5489,-49.9692,71.28,36,26,3.0,BR,1627441757
375,Tura,25.5198,90.2201,80.98,88,96,4.29,IN,1627441758
376,Leningradskiy,69.3833,178.4167,33.73,98,100,9.98,RU,1627441566
377,Port Hedland,-20.3167,118.5667,80.65,57,26,5.75,AU,1627441623
378,Mogadishu,2.0371,45.3438,76.39,82,88,20.04,SO,1627441762
379,Nara,34.6851,135.8049,93.96,42,42,7.47,JP,1627441763
380,Hofn,64.2539,-15.2082,53.82,83,100,6.31,IS,1627441504
381,Tigil',57.8,158.6667,60.89,74,100,3.85,RU,1627441766
382,Nanortalik,60.1432,-45.2371,43.97,84,100,3.96,GL,1627441742
383,São João da Barra,-21.6403,-41.0511,69.67,80,1,13.44,BR,1627441768
384,Klyuchevskiy,53.5317,119.4519,59.23,98,100,3.04,RU,1627441769
385,Fujin,47.26,132.0322,99.21,30,11,7.49,CN,1627441770
386,Taltal,-25.4,-70.4833,55.8,77,3,2.68,CL,1627441772
387,Petropavlovsk-Kamchatskiy,53.0452,158.6483,81.19,42,20,8.95,RU,1627441773
388,Vrangel',42.7297,133.0839,77.34,80,31,5.93,RU,1627441774
389,Comodoro Rivadavia,-45.8667,-67.5,37.26,75,0,2.3,AR,1627441776
390,Lubaczów,50.157,23.1234,61.52,91,20,4.36,PL,1627441777
391,Emerald,-23.5333,148.1667,77.34,42,0,8.08,AU,1627441778
392,Lago da Pedra,-4.3333,-45.1667,75.31,64,20,4.63,BR,1627441779
393,Rāvar,31.2656,56.8055,80.78,13,6,9.4,IR,1627441781
394,Kingston,17.997,-76.7936,83.35,90,20,5.75,JM,1627441523
395,Neuquén,-38.9516,-68.0591,33.69,75,0,0.0,AR,1627441755
396,Leh,34.1667,77.5833,65.93,49,99,1.92,IN,1627441494
397,Mwinilunga,-11.7358,24.4293,49.14,56,100,4.59,ZM,1627441785
398,Ahipara,-35.1667,173.1667,59.94,78,64,8.28,NZ,1627441528
399,Belyy Yar,53.6039,91.3903,58.89,88,75,8.95,RU,1627441788
400,Shahrud,36.4182,54.9763,76.84,47,0,8.46,IR,1627441789
401,Lakselv,70.0513,24.9718,51.75,93,90,9.22,NO,1627441790
402,Apele Vii,44.0667,24.0667,71.38,46,0,3.98,RO,1627441791
403,Zhigansk,66.7697,123.3711,64.27,52,58,9.15,RU,1627441793
404,Caravelas,-17.7125,-39.2481,70.63,89,2,6.02,BR,1627441794
405,Tupelo,34.2576,-88.7034,82.69,88,1,0.0,US,1627441795
406,Mergen,49.1833,125.2167,76.55,75,53,8.75,CN,1627441797
407,Fairlie,55.756,-4.8556,60.21,91,100,1.99,GB,1627441798
408,Kulhudhuffushi,6.6221,73.07,82.0,77,48,15.05,MV,1627441799
409,Kinablangan,7.6947,126.5503,88.02,65,75,6.93,PH,1627441800
410,Arlit,18.7369,7.3853,83.3,54,61,6.02,NE,1627441802
411,Weyburn,49.6668,-103.8511,78.19,36,47,7.34,CA,1627441663
412,Rosarito,32.3333,-117.0333,77.81,78,14,8.52,MX,1627441806
413,Fomboni,-12.28,43.7425,76.35,68,3,16.8,KM,1627441807
414,Nabire,-3.3667,135.4833,87.55,62,90,4.63,ID,1627441808
415,Bilibino,68.0546,166.4372,43.27,78,100,1.07,RU,1627441810
416,Augusto Corrêa,-1.0217,-46.635,75.38,89,87,3.02,BR,1627441811
417,Sambava,-14.2667,50.1667,65.84,84,4,10.16,MG,1627441812
418,Pinsk,52.1229,26.0951,63.88,94,12,6.13,BY,1627441813
419,Bogovarovo,58.9785,47.0246,52.81,70,12,5.55,RU,1627441815
420,Tambura,5.6,27.4667,67.57,98,96,2.46,SS,1627441816
421,Constitución,-35.3333,-72.4167,44.65,78,0,7.23,CL,1627441817
422,Honningsvåg,70.9821,25.9704,42.33,86,99,3.22,NO,1627441819
423,Chingirlau,51.095,54.0814,69.44,41,18,7.29,KZ,1627441820
424,Lagoa,39.05,-27.9833,69.8,91,90,7.43,PT,1627441821
425,Mercedes,-34.6515,-59.4307,45.86,59,62,12.64,AR,1627441822
426,The Pas,53.8251,-101.2541,64.06,72,5,4.41,CA,1627441824
427,Bathsheba,13.2167,-59.5167,81.21,78,20,17.27,BB,1627441776
428,Al Bardīyah,31.7561,25.0865,77.27,66,0,8.19,LY,1627441826
429,Taoudenni,22.6783,-3.9836,97.29,12,58,8.41,ML,1627441827
430,Sirte,31.2089,16.5887,77.92,65,0,9.22,LY,1627441595
431,Santa Cruz de la Sierra,-17.8,-63.1667,61.38,25,98,14.79,BO,1627441830
432,Ekhabi,53.5102,142.9671,72.43,83,100,0.43,RU,1627441831
433,Ubari,26.5921,12.7805,80.26,25,0,8.14,LY,1627441832
434,Mandalgovi,45.7625,106.2708,72.3,46,49,5.82,MN,1627441834
435,San Fernando,15.0286,120.6898,81.97,74,100,15.39,PH,1627441835
436,Kapit,2.0167,112.9333,90.77,57,26,1.5,MY,1627441585
437,Svejbæk,56.1325,9.6329,60.71,94,98,5.53,DK,1627441837
438,Sandwick,60.0,-1.25,55.22,94,90,6.91,GB,1627441838
439,Ondjiva,-17.0667,15.7333,48.81,41,1,6.96,AO,1627441840
440,Basna,21.2833,82.8167,76.1,89,100,12.39,IN,1627441841
441,Spearfish,44.4908,-103.8594,94.08,17,1,17.27,US,1627441590
442,Bryant,34.5959,-92.4891,85.5,60,34,4.43,US,1627441843
443,Leer,8.3018,30.1418,69.69,95,86,2.8,SS,1627441845
444,Fort William,56.8165,-5.1121,57.31,93,100,1.79,GB,1627441846
445,Mossamedes,-15.1961,12.1522,64.45,83,0,5.68,AO,1627441745
446,Almazar,40.3217,69.0106,78.51,18,0,11.81,UZ,1627441848
447,Port Blair,11.6667,92.75,83.05,82,100,19.69,IN,1627441695
448,Pangnirtung,66.1451,-65.7125,49.48,74,100,1.9,CA,1627441851
449,Nurota,40.5614,65.6886,78.89,22,0,18.41,UZ,1627441736
450,Iskateley,67.6803,53.1512,44.6,87,100,10.38,RU,1627441853
451,Puerto Madero,14.7208,-92.4215,80.8,100,75,5.75,MX,1627441854
452,Avila,40.5833,-5.0,60.66,56,0,0.92,ES,1627441856
453,Boissevain,49.2306,-100.0559,68.5,30,57,9.62,CA,1627441857
454,Qom,34.6401,50.8764,87.46,24,0,10.56,IR,1627441858
455,Ballina,-28.8667,153.5667,74.79,48,16,11.52,AU,1627441859
456,Port Shepstone,-30.7414,30.455,59.86,27,0,6.85,ZA,1627441861
457,Vila Velha,-20.3297,-40.2925,73.35,78,0,6.91,BR,1627441640
458,Snåase,64.2457,12.3778,63.1,67,66,6.08,NO,1627441863
459,Redlands,34.0556,-117.1825,92.66,39,17,4.79,US,1627441763
460,Yar-Sale,66.8333,70.8333,50.65,63,100,12.37,RU,1627441865
461,Umm Hājar,13.2954,19.6966,73.81,92,100,9.17,TD,1627441867
462,Guerrero Negro,27.9769,-114.0611,70.16,82,0,16.24,MX,1627441868
463,Portsoy,57.6814,-2.6896,61.29,92,100,9.24,GB,1627441869
464,Tevriz,57.509,72.4042,59.2,86,63,5.19,RU,1627441871
465,Tezu,27.9167,96.1667,91.45,54,65,2.68,IN,1627441578
466,Rzhev,56.2624,34.3282,61.16,89,71,3.22,RU,1627441873
467,Karratha,-20.7377,116.8463,76.75,49,8,6.44,AU,1627441874
468,Challakere,14.3167,76.65,73.99,77,100,17.96,IN,1627441628
469,Roebourne,-20.7833,117.1333,77.72,49,7,4.81,AU,1627441876
470,Coyhaique,-45.5752,-72.0662,35.55,80,0,4.61,CL,1627441858
471,Sur,22.5667,59.5289,98.01,39,100,23.82,OM,1627441651
472,Banda Aceh,5.5577,95.3222,85.78,66,75,12.66,ID,1627441880
473,Moindou,-21.6924,165.677,76.95,52,1,7.02,NC,1627441881
474,Lodwar,3.1191,35.5973,79.2,49,100,11.74,KE,1627441882
475,Gisborne,-38.6533,178.0042,56.95,52,1,7.83,NZ,1627441884
476,Pāsighāt,28.0667,95.3333,89.56,65,52,3.15,IN,1627441885
477,Daura,11.5538,11.4085,70.34,94,100,5.82,NG,1627441886
478,Garoowe,8.4054,48.4845,73.02,68,100,25.34,SO,1627441888
479,Camopi,3.1655,-52.3158,70.83,99,5,2.44,GF,1627441889
480,Acapulco de Juárez,16.8634,-99.8901,80.64,81,67,3.31,MX,1627441890
481,Bonnyville,54.2668,-110.735,67.19,35,0,8.03,CA,1627441677
482,Zamość,50.7231,23.252,64.24,90,34,3.85,PL,1627441893
483,Bambamarca,-6.6833,-78.5333,53.29,93,99,3.11,PE,1627441894
484,San Juan,-31.5375,-68.5364,46.47,43,0,6.15,AR,1627441895
485,Vila Franca do Campo,37.7167,-25.4333,68.41,89,11,7.43,PT,1627441709
486,Touros,-5.1989,-35.4608,74.3,89,13,10.78,BR,1627441897
487,Behshahr,36.6923,53.5526,79.18,92,100,8.01,IR,1627441899
488,City of San Pedro,14.35,121.0167,81.16,91,99,20.71,PH,1627441900
489,Yacuiba,-22.038,-63.6797,46.26,53,6,4.05,BO,1627441901
490,Kota Belud,6.351,116.4305,89.46,54,95,9.91,MY,1627441903
491,Dubbo,-32.25,148.6167,60.93,51,75,14.97,AU,1627441665
492,Krasnokamensk,50.0979,118.0369,74.12,60,13,7.67,RU,1627441905
493,Anloga,5.7947,0.8973,75.96,82,100,13.8,GH,1627441705
494,Grindavik,63.8424,-22.4338,50.56,93,0,13.8,IS,1627441907
495,Galle,6.0367,80.217,81.05,86,99,13.15,LK,1627441909
496,San Miguel,13.4833,-88.1833,78.46,83,75,11.5,SV,1627441910
497,Narsaq,60.9167,-46.05,44.82,73,100,3.94,GL,1627441641
498,Tuatapere,-46.1333,167.6833,52.83,65,54,0.92,NZ,1627441912
499,Santiago,-33.4569,-70.6483,50.85,59,0,0.0,CL,1627441652
500,Kalamazoo,42.2506,-85.55,74.01,73,1,0.0,US,1627441818
501,Majene,-3.5403,118.9707,83.61,67,88,8.77,ID,1627441916
502,Bariloche,-41.1456,-71.3082,37.44,48,0,3.44,AR,1627441917
503,Beira,-19.8436,34.8389,64.89,78,14,2.59,MZ,1627441918
504,Divnomorskoye,44.5011,38.1353,68.31,65,3,16.98,RU,1627441920
505,Sechura,-5.5569,-80.8222,69.08,79,61,13.4,PE,1627441921
506,Clyde River,70.4692,-68.5914,44.02,75,98,1.99,CA,1627441922
507,Port Hardy,50.6996,-127.4199,61.7,71,69,8.48,CA,1627441923
508,Tara,56.8944,74.371,61.38,71,97,7.18,RU,1627441925
509,Flinders,-34.5833,150.8552,73.18,42,65,10.0,AU,1627441926
510,Gulfport,30.3674,-89.0928,86.99,85,1,0.0,US,1627441755
511,Gwadar,25.1216,62.3254,82.06,87,86,9.31,PK,1627441928
512,Paramonga,-10.6667,-77.8333,64.54,87,77,10.45,PE,1627441930
513,Licata,37.1071,13.9461,85.55,53,0,4.54,IT,1627441931
514,Bloomington,44.8408,-93.2983,86.22,77,1,3.44,US,1627441932
515,Savalou,7.9281,1.9756,70.5,91,100,5.41,BJ,1627441934
516,Pilar,-9.5972,-35.9567,71.53,94,4,0.96,BR,1627441935
517,Les Cayes,18.2,-73.75,79.38,87,69,1.86,HT,1627441936
518,Barentu,15.1139,37.5928,68.5,89,100,5.08,ER,1627441937
519,Tabas,33.5959,56.9244,85.39,17,0,6.64,IR,1627441939
520,Putina,-15.4667,-69.4333,41.05,76,12,5.73,PE,1627441940
521,Aykhal,66.0,111.5,85.05,32,33,6.38,RU,1627441941
522,Shimokizukuri,40.8061,140.3861,74.25,92,98,17.98,JP,1627441942
523,Haines Junction,60.7522,-137.5108,58.89,60,45,7.38,CA,1627441944
524,Nuuk,64.1835,-51.7216,50.61,66,16,16.11,GL,1627441945
525,Chipinge,-20.1883,32.6236,44.78,94,0,2.8,ZW,1627441946
526,Martapura,-3.4167,114.85,86.09,70,20,10.36,ID,1627441948
527,Vanimo,-2.6741,141.3028,84.04,78,37,6.64,PG,1627441949
528,Korla,41.7597,86.1469,93.9,14,6,11.18,CN,1627441950
529,Iwanai,42.9744,140.5089,89.49,50,9,1.66,JP,1627441951
530,Harper,4.375,-7.7169,76.17,75,100,7.43,LR,1627441894
531,Waingapu,-9.6567,120.2641,86.47,55,24,15.08,ID,1627441954
532,Belmonte,-15.8631,-38.8828,70.3,86,5,7.65,BR,1627441955
533,Cairns,-16.9167,145.7667,83.07,60,13,5.75,AU,1627441659
534,Necochea,-38.5473,-58.7368,43.03,68,100,22.48,AR,1627441957
535,Caluquembe,-13.7833,14.6833,49.62,42,12,0.65,AO,1627441959
536,Champasak,14.75,106.0,82.69,79,100,3.58,LA,1627441960
537,Ronneby,56.21,15.276,61.3,100,16,2.3,SE,1627441961
538,Touba,8.2833,-7.6833,68.45,98,100,6.29,CI,1627441963
539,Livingston,55.9029,-3.5226,59.22,88,90,3.44,GB,1627441964
540,Vila,42.0304,-8.1588,52.74,84,5,5.06,PT,1627441717
541,Kashgar,39.4547,75.9797,91.18,20,95,1.52,CN,1627441966
542,Porto Belo,-27.1578,-48.5531,59.97,77,44,4.68,BR,1627441967
543,Kirakira,-10.4544,161.9205,84.69,69,55,13.2,SB,1627441969
544,Trincomalee,8.5711,81.2335,83.39,73,100,20.33,LK,1627441970
545,Tūkrah,32.5341,20.5791,75.16,77,0,9.44,LY,1627441971
546,Juegang,32.3174,121.1855,77.83,94,100,23.24,CN,1627441973
547,Mitú,1.1983,-70.1733,71.44,98,100,2.04,CO,1627441974
548,Satipo,-11.2522,-74.6386,70.63,84,83,2.55,PE,1627441975
549,Bongandanga,1.5,21.05,67.91,58,47,2.1,CD,1627441976
550,Olafsvik,64.8945,-23.7142,50.97,89,97,14.14,IS,1627441978
551,Palmer,42.1584,-72.3287,67.48,86,75,0.0,US,1627441979
552,Jaca,42.569,-0.5499,67.01,93,93,1.79,ES,1627441980
553,Barão de Melgaço,-16.1944,-55.9675,64.92,74,5,8.21,BR,1627441981
554,Abu Samrah,35.3029,37.1841,76.6,48,0,9.26,SY,1627441983
555,Brăduţ,46.1333,25.6167,64.35,78,7,2.15,RO,1627441984
556,Matara,5.9485,80.5353,81.45,84,95,11.25,LK,1627441985
557,Sarai,53.7458,41.0213,64.92,74,13,3.6,RU,1627441987
558,Naze,28.3667,129.4833,79.09,84,56,12.84,JP,1627441988
559,Kudahuvadhoo,2.6708,72.8944,81.09,77,100,8.81,MV,1627441989
560,Pāvilosta,56.8879,21.1859,69.75,90,57,10.2,LV,1627441990
561,Kailua,21.4022,-157.7394,87.78,68,75,11.5,US,1627441992
562,Srednekolymsk,67.45,153.6833,37.26,97,100,9.13,RU,1627441993
563,Kemisē,10.7167,39.8667,67.37,77,100,5.59,ET,1627441994
564,Hjørring,57.4642,9.9823,60.28,96,71,8.66,DK,1627441996
565,São Gabriel da Cachoeira,-0.1303,-67.0892,72.25,97,98,1.72,BR,1627441997
566,Sitka,57.0531,-135.33,60.69,77,75,4.61,US,1627441790
567,Mahajanga,-15.7167,46.3167,66.22,72,20,5.75,MG,1627441999
568,Sarab,38.6066,44.9883,72.9,54,0,8.05,IR,1627442000
569,Jijiga,9.35,42.8,59.63,84,100,18.39,ET,1627442002
570,Jumla,29.2747,82.1838,67.46,88,100,1.36,NP,1627442003
571,Katsuura,35.1333,140.3,86.14,76,100,19.1,JP,1627441721
572,Inza,53.8533,46.3586,61.93,75,26,3.42,RU,1627442006
573,Pathein,16.7833,94.7333,84.27,80,99,14.74,MM,1627442007
574,Safi,32.2994,-9.2372,70.36,90,86,12.75,MA,1627442008
575,Chlórakas,34.8042,32.4083,83.43,65,0,4.61,CY,1627442009
576,Salinópolis,-0.6136,-47.3561,79.23,80,92,9.86,BR,1627442011
577,Zandvoort,52.3749,4.5341,62.55,92,20,10.36,NL,1627442012
